"","date","city","state","dead","injured","total","description","year","quarter","month","day","date2","weekday","lat","lng"
"1",2024-11-18,"Denver","Colorado",0,4,4,"Four men were wounded at a strip mall following a dispute over a work ticket in the southeast side.",2024,4,"Nov",18,"Nov 18","Mon",39.762,-104.8758
"2",2024-11-17,"New Orleans","Louisiana",0,10,10,"Ten people were injured in a drive-by shooting during an ongoing parade in the St. Roch neighborhood.",2024,4,"Nov",17,"Nov 17","Sun",30.0687,-89.9288
"3",2024-11-17,"Columbus","Ohio",0,4,4,"Four people were injured in an early morning shooting near the Hungarian Village neighborhood in the south side.",2024,4,"Nov",17,"Nov 17","Sun",39.9862,-82.9855
"4",2024-11-16,"Walthall County","Mississippi",1,4,5,"A woman was killed and four others were injured when a shooting at a large gathering broke out.",2024,4,"Nov",16,"Nov 16","Sat",NA,NA
"5",2024-11-16,"Riverside","California",0,4,4,"Four people were shot and two others were stabbed during a street party in the La Sierra neighborhood.",2024,4,"Nov",16,"Nov 16","Sat",33.9381,-117.3949
"6",2024-11-16,"Lancaster","California",3,1,4,"Emergency crews responding to a house fire found four people, including a teenager, shot, three fatally.",2024,4,"Nov",16,"Nov 16","Sat",34.6935,-118.1753
"7",2024-11-15,"National City","California",1,4,5,"During an ongoing illegal party being held at an abandoned house, a shooting that broke out killed a 12-year-old boy and injured four other men.",2024,4,"Nov",15,"Nov 15","Fri",32.6654,-117.0983
"8",2024-11-13,"San Diego","California",3,1,4,"A man shot and killed his ex-girlfriend and her husband inside a car in the Little Italy neighborhood of Downtown San Diego when they arrived near the courthouse to attend the restraining order hearing during the morning hours. Minutes later, he shot at the police after they located him, wounding one officer. The shooter was then killed when police fired back.",2024,4,"Nov",13,"Nov 13","Wed",32.8313,-117.1222
"9",2024-11-11,"Albuquerque","New Mexico",1,3,4,"A man who was pointing a gun at people at a gas station in the northeast side opened fire at the police after being asked to drop the weapon. Officers then returned fire and killed the suspect. Three others were injured in the shootout.",2024,4,"Nov",11,"Nov 11","Mon",35.1054,-106.6465
"10",2024-11-10,"Wichita","Kansas",5,0,5,"Five men were found dead from gunshot wounds at three different homes. Police later learned that a man killed his father, his stepfather, and his two neighbors before taking his own life.",2024,4,"Nov",10,"Nov 10","Sun",37.6895,-97.3443
"11",2024-11-10,"Atlanta","Georgia",0,4,4,"A dispute over a firearm escalated into a shooting that injured four on the southeast side.",2024,4,"Nov",10,"Nov 10","Sun",33.7628,-84.422
"12",2024-11-10,"Tuskegee","Alabama",1,12,13,"Tuskegee University shooting: During the 100th homecoming week celebration at Tuskegee University, a man opened fire on campus, killing an unaffiliated teen and wounding at least twelve others, including students. Four others suffered non-gunfire-related injuries.",2024,4,"Nov",10,"Nov 10","Sun",32.4409,-85.7131
"13",2024-11-10,"Laurel","Mississippi",0,5,5,"Five people were injured when a man opened fire at a party center after being denied entry.",2024,4,"Nov",10,"Nov 10","Sun",31.6956,-89.1449
"14",2024-11-09,"Huntsville","Alabama",1,3,4,"Four people, one fatally, were injured when an altercation between the two groups escalated into a shooting at a restaurant on the west side.",2024,4,"Nov",9,"Nov 9","Sat",34.6981,-86.6412
"15",2024-11-09,"Lafayette","Louisiana",2,2,4,"Two people were killed and two others were injured when gunfire broke out near the University of Louisiana campus during a homecoming game.",2024,4,"Nov",9,"Nov 9","Sat",30.2082,-92.0325
"16",2024-11-08,"Lynchburg","Virginia",0,5,5,"A shooting on the patio of a restaurant in the Sandusky neighborhood wounded five.",2024,4,"Nov",8,"Nov 8","Fri",37.4003,-79.1909
"17",2024-11-08,"Mount Joy & Dauphin County","Pennsylvania",3,3,6,"A man entered the apartment of a woman who had a restraining order against him and opened fire, striking four family members of the woman, one of whom died. The man then kidnapped the woman and responding officers engaged in a high-speed pursuit with him into Dauphin County where he was stopped with a PIT maneuver by Pennsylvania State Police on Route 147. After being stopped, the man opened fire on police who returned fire and fatally shot him. The kidnapped woman was found dead inside the man's car, but it is unclear who shot her.",2024,4,"Nov",8,"Nov 8","Fri",NA,NA
"18",2024-11-07,"Duluth","Minnesota",5,0,5,"A man went to his ex-partner's home in the Cody neighborhood and fatally shot her and their son. The man then returned to his home in the Denfield neighborhood and fatally shot his wife and their son before committing suicide.",2024,4,"Nov",7,"Nov 7","Thu",46.7756,-92.1393
"19",2024-11-07,"Pittsburgh","Pennsylvania",0,4,4,"Three people were shot on the porch of a home in the Northview Heights neighborhood in the North Side. A fourth victim, a man, was found inside a vehicle by responding officers suffering a gunshot wound after he crashed in East Allegheny.",2024,4,"Nov",7,"Nov 7","Thu",40.4397,-79.9763
"20",2024-11-03,"Stillwater","Oklahoma",0,4,4,"A shooting that disrupted a homecoming party injured four.",2024,4,"Nov",3,"Nov 3","Sun",36.1317,-97.0742
"21",2024-11-03,"Summit View","Washington",1,3,4,"Authorities began receiving calls about a shooting at a house party shortly after midnight and responding officers found a man suffering a mortal gunshot wound on the ground outside a car crashed in a ditch near the party. Later, three other men arrived at hospitals with gunshot wounds.",2024,4,"Nov",3,"Nov 3","Sun",47.1343,-122.3467
"22",2024-11-03,"Detroit","Michigan",2,4,6,"Two people were killed and four others were injured in the Claytown neighborhood in the city's west side.",2024,4,"Nov",3,"Nov 3","Sun",42.3834,-83.1024
"23",2024-11-02,"Cecil County","Maryland",2,2,4,"Two people were killed and two others were injured in an early morning shooting north of Elkton.",2024,4,"Nov",2,"Nov 2","Sat",NA,NA
"24",2024-11-02,"Reno","Nevada",1,3,4,"One person was killed and three others were injured outside of a tavern in Midtown Reno.",2024,4,"Nov",2,"Nov 2","Sat",39.5497,-119.8483
"25",2024-11-01,"Northglenn","Colorado",3,3,6,"Three people were killed and three others were injured when a shooting broke out during a Halloween house party.",2024,4,"Nov",1,"Nov 1","Fri",39.9108,-104.9783
"26",2024-11-01,"New Haven","Connecticut",0,4,4,"Four people, including two teenagers, were injured in a shooting in Downtown New Haven in which counterfeit bills were found strewn around the scene of the attack.",2024,4,"Nov",1,"Nov 1","Fri",41.3113,-72.9246
"27",2024-11-01,"Orlando","Florida",2,7,9,"2024 Orlando Halloween shooting: Two men were killed and seven others were wounded when a suspect, a 17-year-old boy, opened fire in Downtown Orlando during Halloween festivities. One woman was hospitalized after she was trampled by people fleeing the shooting.",2024,4,"Nov",1,"Nov 1","Fri",28.4773,-81.337
"28",2024-10-31,"Wilmington","Delaware",1,3,4,"A man was killed and three other men were injured in a shooting in northeastern Wilmington.",2024,4,"Oct",31,"Oct 31","Thu",39.7415,-75.5416
"29",2024-10-30,"Pasco County","Florida",0,4,4,"Four people were injured after a fight between two neighbors escalated into a shooting north of Zephyrhills.",2024,4,"Oct",30,"Oct 30","Wed",NA,NA
"30",2024-10-28,"Memphis","Tennessee",0,5,5,"Five men were injured when a man opened fire at an apartment complex in the southeast side.",2024,4,"Oct",28,"Oct 28","Mon",35.1087,-89.9663
"31",2024-10-27,"Clarksdale","Mississippi",1,3,4,"A man was killed and three others were injured in a shooting during the evening.",2024,4,"Oct",27,"Oct 27","Sun",34.1933,-90.5693
"32",2024-10-27,"Kalamazoo","Michigan",0,6,6,"Six people were shot at a former laundromat being used to host a party after an argument broke out. One of the victims returned fire.",2024,4,"Oct",27,"Oct 27","Sun",42.2749,-85.5882
"33",2024-10-27,"Bella Vista","California",1,5,6,"A teenager was killed and five others were injured in a shooting at a Halloween house party.",2024,4,"Oct",27,"Oct 27","Sun",40.6427,-122.246
"34",2024-10-27,"Corpus Christi","Texas",2,2,4,"Two people were killed and two others were injured after a fight in a parking lot escalated into a shooting in the Southside neighborhood.",2024,4,"Oct",27,"Oct 27","Sun",27.7254,-97.3767
"35",2024-10-27,"Corpus Christi","Texas",0,5,5,"A fight at a party escalated into a shooting that wounded five men, including two teenagers.",2024,4,"Oct",27,"Oct 27","Sun",27.7254,-97.3767
"36",2024-10-26,"Union Springs","Alabama",2,3,5,"Two teenagers were killed and three others were injured in an overnight shooting.",2024,4,"Oct",26,"Oct 26","Sat",32.1395,-85.7141
"37",2024-10-26,"Durham","North Carolina",0,4,4,"A shooting which injured no one on the North Carolina Central University campus during a homecoming celebration led to a lockdown and a sweep of the campus by police officers. During the sweep, another shooting happened on campus, unrelated to the first shooting, in which four people, including one student, were injured.",2024,4,"Oct",26,"Oct 26","Sat",35.9792,-78.9022
"38",2024-10-26,"Fresno","California",0,6,6,"Six men were shot in the Mural District of Downtown Fresno.",2024,4,"Oct",26,"Oct 26","Sat",36.783,-119.7939
"39",2024-10-26,"McKees Rocks","Pennsylvania",1,3,4,"A man was killed and three others were injured when at least two people opened fire.",2024,4,"Oct",26,"Oct 26","Sat",40.4688,-80.063
"40",2024-10-24,"Waco","Texas",0,4,4,"A late night shooting injured four people in the Brook Oaks neighborhood.",2024,4,"Oct",24,"Oct 24","Thu",31.5599,-97.1882
"41",2024-10-23,"Montgomery","Alabama",1,4,5,"Five people, including two children, were injured in a shooting at an apartment complex in southeast Montgomery. One of the wounded died six days later.",2024,4,"Oct",23,"Oct 23","Wed",32.3482,-86.2668
"42",2024-10-21,"King County","Washington",5,1,6,"A 15-year-old boy fatally shot three of his siblings and his parents at their home west of Snoqualmie. One of his sisters survived by playing dead after being shot before escaping through a window.",2024,4,"Oct",21,"Oct 21","Mon",NA,NA
"43",2024-10-20,"Jackson","Tennessee",1,8,9,"One person was killed and eight others were injured in a shooting at a party.",2024,4,"Oct",20,"Oct 20","Sun",35.6538,-88.8354
"44",2024-10-20,"Baton Rouge","Louisiana",1,5,6,"A shooting in a parking lot of a nightclub hosting a concert killed a man and injured five others.",2024,4,"Oct",20,"Oct 20","Sun",30.442,-91.1311
"45",2024-10-19,"Fort Wayne","Indiana",1,9,10,"Nine people, mostly teenagers, were injured when a teenager opened fire at a high school party after being refused entry. One of the injured returned fire, killing the shooter.",2024,4,"Oct",19,"Oct 19","Sat",41.0888,-85.1436
"46",2024-10-19,"Albany","Georgia",1,4,5,"A teenager was killed and four others, including a teenage girl, were injured in a shooting on the campus of Albany State University during a homecoming celebration.",2024,4,"Oct",19,"Oct 19","Sat",31.5776,-84.1762
"47",2024-10-19,"Holmes County","Mississippi",3,8,11,"During a celebration at an outdoor trail north of Lexington following a high school football game, an argument between two young men escalated, killing three, including two teenagers, and injuring eight others.",2024,4,"Oct",19,"Oct 19","Sat",NA,NA
"48",2024-10-19,"Philadelphia","Pennsylvania",0,7,7,"An argument at an 'Instagram' party escalated into a shooting that left seven people injured, including a teenage girl, near Fotterall Square in the Hartranft neighborhood in the city's north side.",2024,4,"Oct",19,"Oct 19","Sat",40.0077,-75.1339
"49",2024-10-14,"Detroit","Michigan",1,3,4,"An argument among a group of men in the MorningSide neighborhood on the city's east side escalated into a shooting that killed one and injured three others.",2024,4,"Oct",14,"Oct 14","Mon",42.3834,-83.1024
"50",2024-10-12,"Elbert County","Georgia",1,7,8,"A teenager was killed and seven others, mostly other teenagers, were injured in a shooting at a nightclub near Elberton.",2024,4,"Oct",12,"Oct 12","Sat",NA,NA
"51",2024-10-12,"East Cleveland","Ohio",1,4,5,"One person was killed and four others were injured after an altercation at an unauthorized bar escalated.",2024,4,"Oct",12,"Oct 12","Sat",41.5317,-81.5794
"52",2024-10-12,"Nashville","Tennessee",1,9,10,"One person was killed and nine others were injured when two groups exchanged gunfire near Tennessee State University's homecoming game.",2024,4,"Oct",12,"Oct 12","Sat",36.1715,-86.7842
"53",2024-10-12,"Oklahoma City","Oklahoma",1,14,15,"An argument at a Halloween party that escalated into a shooting killed a person and wounded fourteen others in the city's southwest side.",2024,4,"Oct",12,"Oct 12","Sat",35.4676,-97.5136
"54",2024-10-11,"Newberry","South Carolina",0,4,4,"Four people were injured in a shooting at a private party.",2024,4,"Oct",11,"Oct 11","Fri",34.2813,-81.601
"55",2024-10-09,"Kansas City","Missouri",0,5,5,"Four adult men and one teenage male were shot in the Westport area.",2024,4,"Oct",9,"Oct 9","Wed",39.1238,-94.5541
"56",2024-10-06,"Fort Worth","Texas",1,4,5,"A teenager was killed in a shooting in the North Side neighborhood while out celebrating his birthday. Four others were injured.",2024,4,"Oct",6,"Oct 6","Sun",32.7817,-97.3474
"57",2024-10-05,"Oklahoma City","Oklahoma",0,4,4,"An argument that escalated into a shooting injured four people in the Bricktown area of Downtown Oklahoma City.",2024,4,"Oct",5,"Oct 5","Sat",35.4676,-97.5136
"58",2024-10-04,"Redding","California",2,3,5,"Two men were killed and three others were injured in a shooting at a shopping center overnight in the Westwood neighborhood.",2024,4,"Oct",4,"Oct 4","Fri",40.5698,-122.365
"59",2024-09-29,"Houston","Texas",0,4,4,"Four people, including a security guard, were injured when a fight escalated into a shooting at a nightclub in the Briarmeadow neighborhood.",2024,3,"Sep",29,"Sep 29","Sun",29.786,-95.3885
"60",2024-09-29,"Gresham Park","Georgia",1,3,4,"An apparent dispute over a choice in music led to an attempted robbery and a shooting that killed a man and injured three other men.",2024,3,"Sep",29,"Sep 29","Sun",33.7053,-84.3155
"61",2024-09-29,"Danville","Virginia",1,3,4,"A man was killed and three others were injured in an early morning shooting at a restaurant.",2024,3,"Sep",29,"Sep 29","Sun",36.5831,-79.4088
"62",2024-09-28,"Henderson","North Carolina",0,5,5,"A fight during a party at a venue escalated into a shooting when two people opened fire on each other, striking five.",2024,3,"Sep",28,"Sep 28","Sat",36.3256,-78.4151
"63",2024-09-28,"Washington","District of Columbia",1,3,4,"A man was killed and three others were injured in the Woodland neighborhood of Southeast DC.",2024,3,"Sep",28,"Sep 28","Sat",38.9047,-77.0163
"64",2024-09-27,"Merrydale","Louisiana",3,2,5,"A dispute led to two teenagers opening fire outside an apartment complex, killing three people. One of the victims returned fire and wounded both suspects.",2024,3,"Sep",27,"Sep 27","Fri",30.4998,-91.1081
"65",2024-09-27,"Shreveport","Louisiana",0,4,4,"A man opened fire with a rifle at a gathering at an apartment complex in the Mooretown neighborhood, wounding four, including a baby.",2024,3,"Sep",27,"Sep 27","Fri",32.4653,-93.7955
"66",2024-09-27,"Spartanburg County","South Carolina",3,1,4,"Four people were shot, three fatally, over a dispute over who had the rights to hunt on a particular piece of land south of Woodruff.",2024,3,"Sep",27,"Sep 27","Fri",NA,NA
"67",2024-09-26,"Chicago","Illinois",0,4,4,"Multiple shooters from a vehicle opened fire at a group of men walking, wounding four near a music studio in the Irving Park neighborhood on the northwest side.",2024,3,"Sep",26,"Sep 26","Thu",41.8375,-87.6866
"68",2024-09-25,"Los Angeles","California",0,6,6,"Three people opened fire in the Vermont Knolls neighborhood of South Los Angeles, wounding six.",2024,3,"Sep",25,"Sep 25","Wed",34.1141,-118.4068
"69",2024-09-21,"Chicago","Illinois",1,6,7,"During a prayer vigil at a home, a person pulled up in their vehicle in front of the residence and then opened fire, killing a man and injuring six others in the Little Village neighborhood on the city's west side.",2024,3,"Sep",21,"Sep 21","Sat",41.8375,-87.6866
"70",2024-09-21,"Birmingham","Alabama",4,17,21,"September 2024 Birmingham shooting: Four people were killed and seventeen others were wounded when multiple people drove up to a hookah bar and exited their vehicles to open fire on a line of queued people in what is suspected to be a murder-for-hire motivated attack.",2024,3,"Sep",21,"Sep 21","Sat",33.5279,-86.7971
"71",2024-09-21,"New York City","New York",0,6,6,"Six people were shot near the border of the Greenpoint and East Williamsburg neighborhoods in Brooklyn.",2024,3,"Sep",21,"Sep 21","Sat",NA,NA
"72",2024-09-21,"Minneapolis","Minnesota",2,3,5,"Two men were killed and three others, including two teenage girls, were injured in a shooting following a fight in the Downtown West area.",2024,3,"Sep",21,"Sep 21","Sat",44.9635,-93.2678
"73",2024-09-20,"Philadelphia","Pennsylvania",1,3,4,"One person was killed and three others were injured in the Elmwood Park neighborhood on the southwest side.",2024,3,"Sep",20,"Sep 20","Fri",40.0077,-75.1339
"74",2024-09-20,"Phoenix","Arizona",1,3,4,"A teenage boy was killed and three others, including two other teenagers, were wounded in the area between the Garfield and Eastlake Park neighborhoods of Central Phoenix.",2024,3,"Sep",20,"Sep 20","Fri",33.5722,-112.0892
"75",2024-09-18,"Minneapolis","Minnesota",2,3,5,"Two people were killed and three injured in a series of shootings at homeless camps. A Native Mob member was arrested for the shootings.",2024,3,"Sep",18,"Sep 18","Wed",44.9635,-93.2678
"76",2024-09-18,"St. Louis","Missouri",3,1,4,"An exchange of fire between two people in the Academy neighborhood in North St. Louis killed three people and wounded one other person.",2024,3,"Sep",18,"Sep 18","Wed",38.6359,-90.2451
"77",2024-09-16,"Chicago","Illinois",0,4,4,"Four people, including a 13-year-old girl, were wounded when shots were fired into a fitness studio in the Back of the Yards neighborhood on the city's south side.",2024,3,"Sep",16,"Sep 16","Mon",41.8375,-87.6866
"78",2024-09-15,"St. Louis County","Missouri",0,4,4,"Four men were shot in a neighborhood north of Florissant.",2024,3,"Sep",15,"Sep 15","Sun",NA,NA
"79",2024-09-15,"New York City","New York",0,4,4,"Several NYPD officers fired shots into a crowd at an allegedly knife-wielding fare evader at the Sutter Avenue station in Brooklyn, striking the suspect, one officer, and two bystanders. Footage later revealed the fare evader was standing still with his arms by his side when police opened fire.",2024,3,"Sep",15,"Sep 15","Sun",NA,NA
"80",2024-09-14,"Selma","Alabama",0,4,4,"Four people were wounded on the city's east side.",2024,3,"Sep",14,"Sep 14","Sat",32.4166,-87.0336
"81",2024-09-14,"Louisville","Kentucky",0,4,4,"Four men were shot at a gas station in the Portland neighborhood on the city's northeast side.",2024,3,"Sep",14,"Sep 14","Sat",38.1663,-85.6485
"82",2024-09-14,"Houston","Texas",3,8,11,"A drive-by shooting during a block party in the Houston Gardens neighborhood on the city's northeast side killed three and injured eight during the early morning hours.",2024,3,"Sep",14,"Sep 14","Sat",29.786,-95.3885
"83",2024-09-13,"Alexandria","Louisiana",2,2,4,"A man shot three relatives, killing one, before taking his own life at the nail salon he owned.",2024,3,"Sep",13,"Sep 13","Fri",31.2923,-92.4702
"84",2024-09-13,"Nashville","Tennessee",3,1,4,"Three men were fatally shot at a home in the Colemont neighborhood. A bicyclist who was riding by at the time of the killings was shot in the hip by a stray bullet.",2024,3,"Sep",13,"Sep 13","Fri",36.1715,-86.7842
"85",2024-09-12,"Cleveland","Ohio",2,2,4,"A man arrived at a home in the Old Brooklyn neighborhood and began arguing with a woman who he fatally shot before injuring two others. The man then fled the scene and was chased by police before he committed suicide.",2024,3,"Sep",12,"Sep 12","Thu",41.4764,-81.6805
"86",2024-09-12,"Suffolk","Virginia",2,3,5,"Two men were killed and three others were injured at a business.",2024,3,"Sep",12,"Sep 12","Thu",36.6953,-76.6398
"87",2024-09-07,"Amarillo","Texas",4,0,4,"A man killed his wife and two children before turning the gun on himself.",2024,3,"Sep",7,"Sep 7","Sat",35.1984,-101.8316
"88",2024-09-07,"Miami Gardens","Florida",0,5,5,"An argument between two people at a fraternity center for Florida Memorial University escalated into a shooting that wounded five.",2024,3,"Sep",7,"Sep 7","Sat",25.9433,-80.2426
"89",2024-09-07,"Ellport","Pennsylvania",1,4,5,"A man returned to a bar after being asked to leave and opened fire before driving down the road and firing into several other homes and businesses before he was arrested. One woman was killed and four others were injured.",2024,3,"Sep",7,"Sep 7","Sat",40.8619,-80.2625
"90",2024-09-07,"Laurel County","Kentucky",1,5,6,"Interstate 75 Kentucky shooting: A man opened fire on the northbound and southbound lanes of Interstate 75 near exit 49 northwest of London from a cliff ledge, striking twelve vehicles and wounding five people, before fleeing the scene and prompting a manhunt and causing multiple schools, businesses, and churches to close in the county and surrounding counties. Three others were injured as a result of vehicular accidents caused by the attack. Police said they found the suspect dead close by on September 18.",2024,3,"Sep",7,"Sep 7","Sat",NA,NA
"91",2024-09-06,"Washington","District of Columbia",0,5,5,"Five people were shot in the Washington Highlands neighborhood of Southeast DC.",2024,3,"Sep",6,"Sep 6","Fri",38.9047,-77.0163
"92",2024-09-05,"Saraland","Alabama",0,4,4,"At least two people driving on Interstate 65 in Saraland opened fire on each other, resulting in three people being wounded in one vehicle and a fourth being injured in the other.",2024,3,"Sep",5,"Sep 5","Thu",30.8479,-88.1004
"93",2024-09-05,"Milwaukee","Wisconsin",0,4,4,"Three police officers were shot and injured attempting trying to serve a warrant at an apartment building near Timmerman Airport. The suspect, who was also shot, was later arrested.",2024,3,"Sep",5,"Sep 5","Thu",43.0642,-87.9675
"94",2024-09-04,"Barrow County","Georgia",4,7,11,"2024 Apalachee High School shooting: A student opened fire at Apalachee High School, located southwest of Winder, killing two students and two teachers, and wounding six other students and another teacher. Two other students sustained non-gunshot injuries. The shooter surrendered immediately upon being confronted by responding police. He was charged with four counts of felony murder. The father, who gave him the weapon, was charged with four counts of involuntary manslaughter, two counts of second degree murder, and eight counts of cruelty to children.",2024,3,"Sep",4,"Sep 4","Wed",NA,NA
"95",2024-09-03,"West Haven","Utah",4,0,4,"A woman and her three children were found dead inside a vehicle after police responded to a report of a suspected homicide near the house. Officials later stated the woman had killed the three children and herself.",2024,3,"Sep",3,"Sep 3","Tue",41.2083,-112.0541
"96",2024-09-02,"Newark","New Jersey",0,4,4,"A man stole a car from East Orange and then drove to the Clinton Hill neighborhood of Newark where he opened fire, striking four people. The stolen vehicle was later found on fire in the south part of the neighborhood.",2024,3,"Sep",2,"Sep 2","Mon",40.7245,-74.1725
"97",2024-09-02,"Bessemer","Alabama",0,4,4,"A shooting during a candlelight vigil for a fatal shooting that killed three men at a Citgo gas station injured four people.",2024,3,"Sep",2,"Sep 2","Mon",33.3712,-86.9728
"98",2024-09-02,"Seattle , Federal Way, Tukwila, & Fife","Washington",0,5,5,"A man went on a shooting spree along Interstate 5 across King and Pierce counties, wounding five in six different shooting attacks in a two and a half hour timespan.",2024,3,"Sep",2,"Sep 2","Mon",NA,NA
"99",2024-09-02,"Birmingham","Alabama",1,3,4,"One person was killed and three others were injured when someone broke down the door of the apartment they were playing cards in and opened fire in the Titusville neighborhood. The attack was believed to be robbery-motivated.",2024,3,"Sep",2,"Sep 2","Mon",33.5279,-86.7971
"100",2024-09-02,"New York City","New York",1,4,5,"During the annual West Indian Day Parade, a dispute escalated into a shooting that left five people wounded in the Crown Heights neighborhood of Brooklyn. One of the wounded later died.",2024,3,"Sep",2,"Sep 2","Mon",NA,NA
"101",2024-09-02,"Nashville","Tennessee",0,5,5,"Five people were injured in a late night shooting at a nightclub in the Antioch neighborhood on the city's southeast side.",2024,3,"Sep",2,"Sep 2","Mon",36.1715,-86.7842
"102",2024-09-02,"Oak Park","Illinois",4,0,4,"2024 Chicago train shooting: Four people were fatally shot on a Blue Line train between Oak Park and Harlem stations in the Oak Park area. The suspect was later located and arrested at the California station on the Pink Line in Chicago. The attack caused the Blue Line to be shut down between the Forest Park and Austin stations.",2024,3,"Sep",2,"Sep 2","Mon",41.8872,-87.7899
"103",2024-09-01,"St. Louis","Missouri",0,5,5,"Five people were injured in a shooting in Downtown West. One woman suffered a gunshot wound while four others suffered wounds from bullet fragments.",2024,3,"Sep",1,"Sep 1","Sun",38.6359,-90.2451
"104",2024-09-01,"Bullard","Texas",3,1,4,"A mother and her three children were shot at their home. A baby survived with a severe gunshot wound to the face.",2024,3,"Sep",1,"Sep 1","Sun",32.1451,-95.3196
"105",2024-09-01,"Cleveland","Ohio",0,4,4,"Four people were shot in the east side during a dispute over stolen property.",2024,3,"Sep",1,"Sep 1","Sun",41.4764,-81.6805
"106",2024-09-01,"Milford","Delaware",0,4,4,"Police responding to reports of shots fired found four people suffering from gunshot wounds.",2024,3,"Sep",1,"Sep 1","Sun",38.9091,-75.4227
"107",2024-09-01,"Dayton","Ohio",0,4,4,"Four people were injured in an early morning shooting.",2024,3,"Sep",1,"Sep 1","Sun",39.7805,-84.2003
"108",2024-09-01,"New Orleans","Louisiana",1,4,5,"Following a fight at a bar, a group of five women were driving away when they were fired upon in Mid-City, causing a roll-over crash. One woman was killed and the four others were injured.",2024,3,"Sep",1,"Sep 1","Sun",30.0687,-89.9288
"109",2024-08-31,"Waianae","Hawaii",4,2,6,"A man rammed his tractor into several vehicles outside his neighbor's residence where a party was being held, then shot into the tractor's fuel drums and into the home's carport and at fleeing partygoers, killing three and injuring two others, before he was fatally shot by the homeowner.",2024,3,"Aug",31,"Aug 31","Sat",21.4568,-158.1758
"110",2024-08-31,"Albuquerque","New Mexico",4,0,4,"Four people at an apartment were drinking together throughout the day in the Near North Valley area. During the late evening an argument escalated into a shooting in which a man shot and killed the three he had been drinking with before fatally shooting himself.",2024,3,"Aug",31,"Aug 31","Sat",35.1054,-106.6465
"111",2024-08-30,"Euclid","Ohio",1,4,5,"A teenager was killed and four other teenagers were injured in a shooting near the campus of Euclid High School following a high school football game.",2024,3,"Aug",30,"Aug 30","Fri",41.5903,-81.5188
"112",2024-08-30,"Burnsville","Minnesota",0,5,5,"Five teenagers were shot in a sports park during the evening hours.",2024,3,"Aug",30,"Aug 30","Fri",44.7648,-93.2793
"113",2024-08-29,"Dallas","Texas",2,2,4,"A man sought out a police officer and fatally shot him as he sat in his patrol car in a parking lot in Cedar Crest . Officers responded after hearing gunshots over the fallen officer's radio and were fired upon by the man, with two officers being struck by gunfire. The man then fled north along Interstate 35E before he was stopped by pursuing police officers 40 miles away in Lewisville where he was fatally shot after an exchange of gunfire.",2024,3,"Aug",29,"Aug 29","Thu",32.7935,-96.7667
"114",2024-08-29,"Tulare","California",0,4,4,"Four men were shot during the evening hours in a residential area.",2024,3,"Aug",29,"Aug 29","Thu",36.1995,-119.34
"115",2024-08-27,"Philadelphia","Pennsylvania",0,4,4,"Three men and a woman were shot in the Kensington neighborhood on the northeast side.",2024,3,"Aug",27,"Aug 27","Tue",40.0077,-75.1339
"116",2024-08-25,"Warner Robins","Georgia",0,4,4,"A drive-by shooting during a house party wounded a man and three women.",2024,3,"Aug",25,"Aug 25","Sun",32.5961,-83.6527
"117",2024-08-25,"Sioux Falls","South Dakota",1,3,4,"A man was killed and three other men were injured in a shooting at Dunham Park.",2024,3,"Aug",25,"Aug 25","Sun",43.5396,-96.7311
"118",2024-08-25,"Allentown","Pennsylvania",0,8,8,"A man fired at another group during a Dominican Festival in Downtown Allentown, resulting in a shootout that injured eight people.",2024,3,"Aug",25,"Aug 25","Sun",40.5961,-75.4756
"119",2024-08-25,"Lubbock County","Texas",1,5,6,"One person was killed and five others were injured in a shooting south of Lubbock.",2024,3,"Aug",25,"Aug 25","Sun",NA,NA
"120",2024-08-25,"Syosset","New York",5,0,5,"A man fatally shot himself outside the home of his recently deceased mother after shooting and killing three of his siblings and a niece inside the home. They had gathered at the home for the funeral and planned to sell the estate.",2024,3,"Aug",25,"Aug 25","Sun",40.8157,-73.502
"121",2024-08-25,"Mobile","Alabama",0,6,6,"Six people were shot shortly after midnight in the Africatown neighborhood.",2024,3,"Aug",25,"Aug 25","Sun",30.6782,-88.1162
"122",2024-08-24,"Chester","Pennsylvania",1,3,4,"One person was killed and three others were injured in a shooting at an intersection.",2024,3,"Aug",24,"Aug 24","Sat",39.8456,-75.3718
"123",2024-08-24,"Whitfield County","Georgia",4,0,4,"A 16-year-old boy fatally shot four men at a sports park north of Dalton in what was believed to be a robbery-motivated attack.",2024,3,"Aug",24,"Aug 24","Sat",NA,NA
"124",2024-08-22,"Houston","Texas",0,4,4,"Three masked people fired into a home in the Eastwood neighborhood, striking three teenagers and a young child, before fleeing.",2024,3,"Aug",22,"Aug 22","Thu",29.786,-95.3885
"125",2024-08-22,"Milwaukee","Wisconsin",1,3,4,"A man was killed and three other men, including a security guard, were injured in an early morning shooting at a north side bar in the Washington Park neighborhood.",2024,3,"Aug",22,"Aug 22","Thu",43.0642,-87.9675
"126",2024-08-21,"Philadelphia","Pennsylvania",0,4,4,"Two people ran across a storefront area and opened fire, injuring four men in the process, in the Haverford North neighborhood on the west side.",2024,3,"Aug",21,"Aug 21","Wed",40.0077,-75.1339
"127",2024-08-20,"Jackson","Mississippi",0,6,6,"Six people, including a three-year-old girl, were shot in a drive-by shooting in the Belhaven neighborhood.",2024,3,"Aug",20,"Aug 20","Tue",32.3157,-90.2125
"128",2024-08-20,"Everett","Washington",0,4,4,"Four people were shot overnight in the Westmont neighborhood.",2024,3,"Aug",20,"Aug 20","Tue",47.9525,-122.1669
"129",2024-08-20,"Chicago","Illinois",1,5,6,"Two people opened fire in the Back of the Yards neighborhood on the south side, killing a man and injuring five other men, including a man who was driving by at the time of the attack.",2024,3,"Aug",20,"Aug 20","Tue",41.8375,-87.6866
"130",2024-08-19,"Elizabethtown","Kentucky",3,1,4,"A man killed two people and wounded one other outside the Hardin County courthouse and later shot and wounded himself after a police chase. The suspect later died at a hospital.",2024,3,"Aug",19,"Aug 19","Mon",37.7031,-85.8773
"131",2024-08-18,"Oklahoma City","Oklahoma",0,4,4,"Four people were wounded when a person opened fire into a group of people in the Bricktown area of Downtown Oklahoma City. Two officers fired at the suspect before they eventually surrendered.",2024,3,"Aug",18,"Aug 18","Sun",35.4676,-97.5136
"132",2024-08-18,"Baltimore","Maryland",1,7,8,"A man was killed and seven others were injured in a shooting at a gathering in the Oliver neighborhood.",2024,3,"Aug",18,"Aug 18","Sun",39.3051,-76.6144
"133",2024-08-18,"Boston","Massachusetts",0,5,5,"Five people were shot at Franklin Park on the outskirts of the Dominican Festival.",2024,3,"Aug",18,"Aug 18","Sun",42.3188,-71.0852
"134",2024-08-18,"Minneapolis","Minnesota",0,4,4,"A group of five children stole a vehicle and were followed by another vehicle. After some time at least one occupant in the other vehicle opened fire in the Jordan neighborhood, striking four of the children. Two of the children had been arrested less than two weeks prior for stealing another vehicle.",2024,3,"Aug",18,"Aug 18","Sun",44.9635,-93.2678
"135",2024-08-17,"Oakland","California",2,2,4,"A crowded argument escalated into a shooting that killed two people and wounded two others in the city's east side.",2024,3,"Aug",17,"Aug 17","Sat",37.7904,-122.2166
"136",2024-08-17,"Jackson","Mississippi",1,5,6,"An early morning shooting at a bar in Downtown Jackson killed one and injured five others.",2024,3,"Aug",17,"Aug 17","Sat",32.3157,-90.2125
"137",2024-08-16,"Memphis","Tennessee",0,4,4,"A man shot four others outside a Midtown restaurant after arguing about a parking spot.",2024,3,"Aug",16,"Aug 16","Fri",35.1087,-89.9663
"138",2024-08-14,"Colorado Springs","Colorado",1,3,4,"One person was killed and three people were injured in a shooting at the Sandcreek Commons Condos.",2024,3,"Aug",14,"Aug 14","Wed",38.8674,-104.7605
"139",2024-08-14,"Waianae","Hawaii",1,3,4,"A man chased a woman into a neighbor's home as a result of a domestic incident and began firing into the home, striking three people inside, before he was fatally shot by responding police.",2024,3,"Aug",14,"Aug 14","Wed",21.4568,-158.1758
"140",2024-08-14,"Ettrick","Virginia",0,4,4,"Four people were injured in an on-campus shooting at Virginia State University. None of the victims or suspects are students of the school.",2024,3,"Aug",14,"Aug 14","Wed",37.2435,-77.4287
"141",2024-08-12,"Indianapolis","Indiana",2,2,4,"A man killed one person and wounded two adolescents before taking his own life.",2024,3,"Aug",12,"Aug 12","Mon",39.7771,-86.1458
"142",2024-08-12,"Lawrence","Massachusetts",1,3,4,"A man opened fire on his ex-girlfriend, her sister and brother, and her friend after he broke into their apartment. The man wounded his ex-girlfriend and her siblings and fatally shot her friend when he attempted to disarm him in a struggle.",2024,3,"Aug",12,"Aug 12","Mon",42.7002,-71.1626
"143",2024-08-12,"Chicago","Illinois",0,4,4,"Four people were injured in a shooting at a Near West Side club after an argument escalated.",2024,3,"Aug",12,"Aug 12","Mon",41.8375,-87.6866
"144",2024-08-11,"Tucson","Arizona",0,4,4,"Four people were injured in a shooting.",2024,3,"Aug",11,"Aug 11","Sun",32.1541,-110.8787
"145",2024-08-11,"Sharpsburg","North Carolina",3,2,5,"A man killed a woman and a six-year-old child while wounding two others before taking his own life in a domestic-related incident.",2024,3,"Aug",11,"Aug 11","Sun",35.8663,-77.8306
"146",2024-08-10,"Cleveland","Ohio",0,4,4,"Four people were injured in a shooting at a car meet at the Lee Harvard Shopping Center in the Leeâ€“Miles neighborhood.",2024,3,"Aug",10,"Aug 10","Sat",41.4764,-81.6805
"147",2024-08-10,"Jacksonville","Florida",0,6,6,"Six people were shot outside of a pop-up nightclub in the Brentwood neighborhood.",2024,3,"Aug",10,"Aug 10","Sat",30.3322,-81.6749
"148",2024-08-10,"Atlanta","Georgia",0,5,5,"A shooting at an event left five people wounded, including three teens, near a park on the city's southwest side in the Mechanicsville neighborhood.",2024,3,"Aug",10,"Aug 10","Sat",33.7628,-84.422
"149",2024-08-09,"Dallas","Texas",0,4,4,"Four people were injured in a shooting at Far North Dallas.",2024,3,"Aug",9,"Aug 9","Fri",32.7935,-96.7667
"150",2024-08-09,"Charlotte","North Carolina",0,4,4,"A shooting at a Shell gas station injured four people on the city's south side in the Montclaire South neighborhood.",2024,3,"Aug",9,"Aug 9","Fri",35.2083,-80.8303
"151",2024-08-09,"Lexington","Kentucky",1,5,6,"One person was killed and five others were injured in an overnight shooting.",2024,3,"Aug",9,"Aug 9","Fri",38.0423,-84.4587
"152",2024-08-08,"Birmingham","Alabama",2,2,4,"A man opened fire at two homes in the West End Manor neighborhood, killing two and injuring two others, in a domestic-related incident.",2024,3,"Aug",8,"Aug 8","Thu",33.5279,-86.7971
"153",2024-08-07,"New York City","New York",0,6,6,"Six men were injured near St. James Park when two other men pulled up on scooters and opened fire in the Fordham neighborhood of The Bronx.",2024,3,"Aug",7,"Aug 7","Wed",NA,NA
"154",2024-08-06,"Morgan County","West Virginia",0,4,4,"A fight at a house party at a home east of Berkeley Springs led to a shooting that wounded four.",2024,3,"Aug",6,"Aug 6","Tue",NA,NA
"155",2024-08-05,"Seattle","Washington",0,4,4,"A drive-by shooting on the edge of Downtown Seattle in Capitol Hill injured four people. One of the victims crashed his vehicle into the Swedish First Hill hospital while fleeing the scene.",2024,3,"Aug",5,"Aug 5","Mon",47.6211,-122.3244
"156",2024-08-05,"Beechwood","Mississippi",1,3,4,"A teenager killed another teenager and injured three other people after a dispute over a stolen cell phone east of Vicksburg.",2024,3,"Aug",5,"Aug 5","Mon",32.3303,-90.819
"157",2024-08-05,"Kansas City","Missouri",1,5,6,"One person was killed and five others were injured after an argument escalated into a shootout at a gathering in the city's south side.",2024,3,"Aug",5,"Aug 5","Mon",39.1238,-94.5541
"158",2024-08-04,"Oakland","California",0,5,5,"A shooting during a sideshow injured five in the Dimond District neighborhood on the city's east side.",2024,3,"Aug",4,"Aug 4","Sun",37.7904,-122.2166
"159",2024-08-04,"Memphis","Tennessee",0,4,4,"Three women and a man were injured when four men opened fire on them outside a nightclub on the city's northeast side.",2024,3,"Aug",4,"Aug 4","Sun",35.1087,-89.9663
"160",2024-08-04,"Chicago","Illinois",0,5,5,"Five men were shot in the Washington Park neighborhood in the city's south side. The five shooting victims were uncooperative with responding police.",2024,3,"Aug",4,"Aug 4","Sun",41.8375,-87.6866
"161",2024-08-04,"Chicago","Illinois",1,3,4,"A man was killed and three others were injured in a shooting outside a restaurant in Chinatown on the city's south side.",2024,3,"Aug",4,"Aug 4","Sun",41.8375,-87.6866
"162",2024-08-04,"Tulsa","Oklahoma",0,8,8,"Eight people were injured in an early morning shooting in the city's north side.",2024,3,"Aug",4,"Aug 4","Sun",36.1283,-95.9042
"163",2024-08-03,"Springfield","Ohio",0,5,5,"Five people were injured in a shooting attack southeast of downtown Springfield. Multiple vehicles were shot during the attack.",2024,3,"Aug",3,"Aug 3","Sat",39.93,-83.7959
"164",2024-08-03,"Washington","District of Columbia",2,2,4,"Two people were killed and two were injured in a shooting in the NoMa neighborhood of Northeast DC.",2024,3,"Aug",3,"Aug 3","Sat",38.9047,-77.0163
"165",2024-08-03,"Milwaukee","Wisconsin",0,5,5,"Five people were shot outside of a bar in the city's north side in the Williamsburg neighborhood.",2024,3,"Aug",3,"Aug 3","Sat",43.0642,-87.9675
"166",2024-08-02,"Charlotte","North Carolina",1,3,4,"One person was killed and three others were injured in the city's east side near the Charlotte Museum of History.",2024,3,"Aug",2,"Aug 2","Fri",35.2083,-80.8303
"167",2024-08-02,"Lake County","Florida",4,2,6,"A woman called law enforcement for a well-being check on a nearby home east of Umatilla and when officers arrived it appeared that a home had been burglarized, and they ordered people they heard inside to come out. When the officers made entry they were fired upon by the woman's husband and two daughters. All three attackers and one of the deputies were killed, while two other deputies sustained gunshot wounds. The woman who called 911 was later arrested and charged with premeditated murder.",2024,3,"Aug",2,"Aug 2","Fri",NA,NA
"168",2024-08-01,"Aurora","Colorado",1,3,4,"One person was killed and three others were injured in an afternoon shooting.",2024,3,"Aug",1,"Aug 1","Thu",39.7083,-104.7237
"169",2024-07-30,"South Fulton","Georgia",1,3,4,"A shooting at a Shell gas station left one dead and three others injured.",2024,3,"Jul",30,"Jul 30","Tue",33.6273,-84.58
"170",2024-07-29,"Portland","Maine",1,3,4,"Four people were shot, one fatally, in the parking lot of an auto repair shop in the North Deering neighborhood.",2024,3,"Jul",29,"Jul 29","Mon",43.6773,-70.2715
"171",2024-07-28,"Auburn","Washington",0,4,4,"A group of four masked men opened fire on another group exiting a bus at a bus stop, injuring four, in what is believed to be a targeted attack. One of the victims in the group returned fire.",2024,3,"Jul",28,"Jul 28","Sun",47.3039,-122.2108
"172",2024-07-28,"South Bend","Indiana",0,4,4,"Four people were injured in the city's northeast side.",2024,3,"Jul",28,"Jul 28","Sun",41.6767,-86.2696
"173",2024-07-28,"St. Louis","Missouri",1,3,4,"A woman was killed and three others were injured in a shooting at a restaurant in the Tower Grove East neighborhood on the city's south side.",2024,3,"Jul",28,"Jul 28","Sun",38.6359,-90.2451
"174",2024-07-28,"Escambia County","Florida",2,5,7,"A drive-by shooting at a community center northwest of Brent where a basketball game was being held killed two people and injured five others.",2024,3,"Jul",28,"Jul 28","Sun",NA,NA
"175",2024-07-28,"Los Angeles","California",0,4,4,"Four people, including a 14-year-old boy, were wounded in a drive-by shooting in the South Park neighborhood of South Los Angeles.",2024,3,"Jul",28,"Jul 28","Sun",34.1141,-118.4068
"176",2024-07-28,"Rochester","New York",2,5,7,"Two people were killed and five others were injured in a shooting in Maplewood Park in the Maplewood Historic District.",2024,3,"Jul",28,"Jul 28","Sun",43.168,-77.6162
"177",2024-07-28,"Milwaukee","Wisconsin",0,5,5,"Five teenagers were shot in the city's northwest side.",2024,3,"Jul",28,"Jul 28","Sun",43.0642,-87.9675
"178",2024-07-28,"Champaign","Illinois",2,2,4,"Three teenagers and a woman were shot in an apartment complex parking lot, with two of the teens being killed.",2024,3,"Jul",28,"Jul 28","Sun",40.1142,-88.2737
"179",2024-07-27,"Dallas","Texas",0,5,5,"Three shooters opened fire at a gas station, wounding five, in the city's south side.",2024,3,"Jul",27,"Jul 27","Sat",32.7935,-96.7667
"180",2024-07-26,"Kankakee","Illinois",0,6,6,"A fight at a birthday party among a group of adults and juveniles at Pioneer Park escalated into a shooting that wounded six.",2024,3,"Jul",26,"Jul 26","Fri",41.102,-87.8643
"181",2024-07-25,"Jeanerette","Louisiana",1,3,4,"A Lafayette police SWAT team member was killed and three others were wounded in a shootout during a hostage situation, in which a man wanted for a drive-by shooting barricaded himself inside a home with two others, including a juvenile.",2024,3,"Jul",25,"Jul 25","Thu",29.9157,-91.6758
"182",2024-07-24,"Yancey County","North Carolina",0,4,4,"Three people were injured when a man opened fire on a tree trimming crew. The suspect was shot by police before being taken into custody.",2024,3,"Jul",24,"Jul 24","Wed",NA,NA
"183",2024-07-23,"Burton","South Carolina",0,4,4,"Four people were shot inside a vehicle when they were fired upon by at least one other person inside another vehicle.",2024,3,"Jul",23,"Jul 23","Tue",32.4232,-80.7456
"184",2024-07-22,"Milwaukee","Wisconsin",1,8,9,"A shooting in a Dineen Park parking lot left a teenage girl dead and eight others wounded.",2024,3,"Jul",22,"Jul 22","Mon",43.0642,-87.9675
"185",2024-07-21,"Anderson","Indiana",0,7,7,"A shooting at a block party injured seven people, including two teenagers.",2024,3,"Jul",21,"Jul 21","Sun",40.0891,-85.6892
"186",2024-07-21,"Jackson","Mississippi",2,4,6,"A shooting at a Shell gas station killed two, including the owner, and injured four others.",2024,3,"Jul",21,"Jul 21","Sun",32.3157,-90.2125
"187",2024-07-21,"Indianola","Mississippi",3,16,19,"Three men, including two suspects, were killed and sixteen people wounded in a shooting near a club.",2024,3,"Jul",21,"Jul 21","Sun",33.4492,-90.6447
"188",2024-07-21,"Philadelphia","Pennsylvania",3,6,9,"An altercation at a block party escalated into a gunfight that killed three people and injured six others, including one of the shooters in the Carroll Park neighborhood of the city's west side.",2024,3,"Jul",21,"Jul 21","Sun",40.0077,-75.1339
"189",2024-07-20,"Vista","California",1,3,4,"A shooting killed a young man and injured three others.",2024,3,"Jul",20,"Jul 20","Sat",33.1896,-117.2386
"190",2024-07-19,"Broken Arrow","Oklahoma",4,0,4,"A man killed his brother, grandfather and aunt before committing suicide.",2024,3,"Jul",19,"Jul 19","Fri",36.038,-95.7806
"191",2024-07-18,"Bibb County","Alabama",5,0,5,"A man killed his wife and four children north of West Blocton.",2024,3,"Jul",18,"Jul 18","Thu",NA,NA
"192",2024-07-18,"Washington","District of Columbia",2,2,4,"Three suspects opened fire with rifles in an intersection in the Shipley Terrace neighborhood of southeast DC, killing two men and injuring two others, including a two-year-old girl.",2024,3,"Jul",18,"Jul 18","Thu",38.9047,-77.0163
"193",2024-07-18,"Los Angeles","California",0,4,4,"Two suspects opened fire near a taco stand in the Westlake neighborhood, injuring one intended target and three others.",2024,3,"Jul",18,"Jul 18","Thu",34.1141,-118.4068
"194",2024-07-15,"Orange","Texas",0,4,4,"Four people were injured in a shooting on the city's east side.",2024,3,"Jul",15,"Jul 15","Mon",30.1226,-93.7607
"195",2024-07-15,"Minneapolis","Minnesota",1,5,6,"One person was killed and five other people were injured in a shooting at an encampment in the Ventura Village neighborhood of Phillips on the city's south side. One man was arrested on obstruction charges and unrelated warrants.",2024,3,"Jul",15,"Jul 15","Mon",44.9635,-93.2678
"196",2024-07-14,"Goose Creek","South Carolina",1,3,4,"A male teenager opened fire on three women, including two other teenagers, as they attempted to enter a vehicle at an apartment complex. After killing one of the teenagers, the shooter then shot himself.",2024,3,"Jul",14,"Jul 14","Sun",32.9927,-80.0055
"197",2024-07-14,"Indianapolis","Indiana",0,5,5,"Five people, including a boy, were injured in a shooting at a basketball court in the Carson Heights neighborhood on the city's south side.",2024,3,"Jul",14,"Jul 14","Sun",39.7771,-86.1458
"198",2024-07-14,"Holly Springs","Mississippi",4,0,4,"Officers responding to a home found three women shot to death in a car and a man dead on the driveway. Investigators later determined it was a murder-suicide.",2024,3,"Jul",14,"Jul 14","Sun",34.7768,-89.4466
"199",2024-07-14,"Chicago","Illinois",0,4,4,"Four people were wounded when someone fired multiple shots into the group during a celebration in the Jeffery Manor neighborhood of the city's south side.",2024,3,"Jul",14,"Jul 14","Sun",41.8375,-87.6866
"200",2024-07-13,"New Haven","Connecticut",0,4,4,"Four people were shot in the Newhallville neighborhood on the city's north side.",2024,3,"Jul",13,"Jul 13","Sat",41.3113,-72.9246
"201",2024-07-13,"Birmingham","Alabama",4,10,14,"A drive-by shooting in the city's north side killed four people and injured ten others at a birthday party held by a social club.",2024,3,"Jul",13,"Jul 13","Sat",33.5279,-86.7971
"202",2024-07-13,"Meridian","Pennsylvania",2,3,5,"Attempted assassination of Donald Trump in Pennsylvania: A man opened fire on former President Donald Trump during a campaign rally being held at the Butler Farm Show fairground from atop a nearby roof, killing an audience member, grazing Trump on the ear, and critically injuring two other audience members. The man was then killed by a Secret Service sniper. A Butler Township officer who attempted to climb onto the roof to confront the shooter severely injured his ankle when he fell off the roof when the man pointed his rifle at him just before opening fire on the rally.",2024,3,"Jul",13,"Jul 13","Sat",40.8531,-79.9555
"203",2024-07-12,"Louisville","Kentucky",0,5,5,"Three women and two men were shot in the Russell neighborhood.",2024,3,"Jul",12,"Jul 12","Fri",38.1663,-85.6485
"204",2024-07-12,"Wichita","Kansas",1,4,5,"Four people were found shot, one fatally, in the city's southwest side. One of the victims critically wounded in the same shooting was also found in the South Seneca neighborhood.",2024,3,"Jul",12,"Jul 12","Fri",37.6895,-97.3443
"205",2024-07-12,"Chicago","Illinois",0,5,5,"A drive-by shooting in the North Lawndale neighborhood on the city's west side left five people wounded.",2024,3,"Jul",12,"Jul 12","Fri",41.8375,-87.6866
"206",2024-07-11,"Wichita","Kansas",0,4,4,"Two males opened fire on a group of teenagers, wounding all four, in the Murdock neighborhood.",2024,3,"Jul",11,"Jul 11","Thu",37.6895,-97.3443
"207",2024-07-10,"Alameda","California",5,0,5,"A man fatally shot his wife, her parents, and two of his sons at their home before being arrested.",2024,3,"Jul",10,"Jul 10","Wed",37.7668,-122.267
"208",2024-07-10,"Boston","Massachusetts",0,5,5,"Five people, including an 11-year-old, were shot while celebrating at a gathering in the Dorchester neighborhood.",2024,3,"Jul",10,"Jul 10","Wed",42.3188,-71.0852
"209",2024-07-09,"Charlotte","North Carolina",1,3,4,"A drug deal gone wrong resulted in a shooting that killed one and injured three in the Westover Hills neighborhood in the city's west side.",2024,3,"Jul",9,"Jul 9","Tue",35.2083,-80.8303
"210",2024-07-08,"Fort Lauderdale","Florida",2,3,5,"Two people were killed and three others, including a two-year-old, were injured in a drive-by shooting.",2024,3,"Jul",8,"Jul 8","Mon",26.1412,-80.1464
"211",2024-07-08,"Washington","District of Columbia",0,4,4,"Four people were injured near the Navy Yard neighborhood of southeast DC.",2024,3,"Jul",8,"Jul 8","Mon",38.9047,-77.0163
"212",2024-07-08,"New Bedford","Massachusetts",0,6,6,"A shooting at a playground left six people injured.",2024,3,"Jul",8,"Jul 8","Mon",41.6697,-70.9428
"213",2024-07-07,"Washington County","North Carolina",1,3,4,"A man was killed and three others were injured when shots were fired at a house party at a home north of Roper.",2024,3,"Jul",7,"Jul 7","Sun",NA,NA
"214",2024-07-07,"Detroit","Michigan",2,19,21,"A block party shooting left two dead and nineteen injured in the Mohican Regent neighborhood on the city's northeast side. Teenagers were among the victims.",2024,3,"Jul",7,"Jul 7","Sun",42.3834,-83.1024
"215",2024-07-06,"Akron","Ohio",0,4,4,"A toddler and three adults were injured in the Goodyear Heights neighborhood.",2024,3,"Jul",6,"Jul 6","Sat",41.0798,-81.5219
"216",2024-07-06,"Milwaukee","Wisconsin",0,4,4,"Four people, including three teenagers, were shot in the Williamsburg neighborhood.",2024,3,"Jul",6,"Jul 6","Sat",43.0642,-87.9675
"217",2024-07-06,"Florence","Kentucky",5,3,8,"2024 Florence shooting: Four people were killed and three others were injured in a shooting at a residence. The shooter fled the scene in a vehicle and was pursued by police before committing suicide and crashing his car into a ditch.",2024,3,"Jul",6,"Jul 6","Sat",38.9899,-84.6471
"218",2024-07-05,"Clarksdale","Mississippi",1,3,4,"A drive-by shooting left a man dead and three other men injured when they were fired upon while sitting in a car together.",2024,3,"Jul",5,"Jul 5","Fri",34.1933,-90.5693
"219",2024-07-05,"Poughkeepsie","New York",0,4,4,"Four people were shot overnight along the city's main street.",2024,3,"Jul",5,"Jul 5","Fri",41.695,-73.9211
"220",2024-07-05,"Pontiac","Michigan",0,5,5,"A fight during a party escalated when someone opened fire into a crowd, striking five teenage boys.",2024,3,"Jul",5,"Jul 5","Fri",42.6493,-83.2878
"221",2024-07-05,"Albany","Georgia",1,3,4,"A fight in a nightclub was brought out into the parking lot where multiple people retrieved guns and opened fire, killing a man and injuring three others.",2024,3,"Jul",5,"Jul 5","Fri",31.5776,-84.1762
"222",2024-07-05,"Tampa","Florida",0,4,4,"Four people, including a security guard, were injured after a fight between two suspects escalated into a shooting at an adult entertainment club.",2024,3,"Jul",5,"Jul 5","Fri",27.9945,-82.4447
"223",2024-07-05,"Albany","New York",0,6,6,"Six teenagers were shot during a large Independence Day party at home.",2024,3,"Jul",5,"Jul 5","Fri",42.6664,-73.7987
"224",2024-07-05,"Chicago","Illinois",1,6,7,"A shootout between two individuals killed one person and wounded six, including a 15-year-old boy in the Austin neighborhood on the city's west side.",2024,3,"Jul",5,"Jul 5","Fri",41.8375,-87.6866
"225",2024-07-05,"Chicago","Illinois",0,8,8,"Eight people were wounded during a shootout between two individuals in the Little Italy neighborhood in the city's west side.",2024,3,"Jul",5,"Jul 5","Fri",41.8375,-87.6866
"226",2024-07-04,"Ocean Springs","Mississippi",0,7,7,"A man fired a round of birdshot at a neighbor's Independence Day party, injuring seven, including multiple children.",2024,3,"Jul",4,"Jul 4","Thu",30.4082,-88.7861
"227",2024-07-04,"Spanish Lake","Missouri",1,5,6,"A man was killed and five others were injured.",2024,3,"Jul",4,"Jul 4","Thu",38.7884,-90.2077
"228",2024-07-04,"St. Louis","Missouri",0,7,7,"Seven people, including four teenagers, were wounded in a shooting in Downtown St. Louis.",2024,3,"Jul",4,"Jul 4","Thu",38.6359,-90.2451
"229",2024-07-04,"Nashville","Tennessee",0,4,4,"Four people were struck by celebratory gunfire in Downtown Nashville during an Independence Day celebration.",2024,3,"Jul",4,"Jul 4","Thu",36.1715,-86.7842
"230",2024-07-04,"Fort Worth","Texas",3,3,6,"A fight at a car wash in the Far Southwest neighborhood developed into a shooting in which a man fatally shot another man as well as a baby and a toddler and injured two others. During the gunfire the shooter was also injured.",2024,3,"Jul",4,"Jul 4","Thu",32.7817,-97.3474
"231",2024-07-04,"Philadelphia","Pennsylvania",1,8,9,"A man was killed and eight others were injured in a drive-by shooting in the city's southwest side.",2024,3,"Jul",4,"Jul 4","Thu",40.0077,-75.1339
"232",2024-07-04,"Indianapolis","Indiana",1,3,4,"A dispute over fireworks led to a man opening fire on a group in the Marian - Cold Springs, killing a woman, before he was fired back upon and injured.",2024,3,"Jul",4,"Jul 4","Thu",39.7771,-86.1458
"233",2024-07-04,"Chicago","Illinois",3,2,5,"Two adults and a child were killed and two other children were wounded in the Greater Grand Crossing neighborhood on the city's south side after a personal dispute escalated.",2024,3,"Jul",4,"Jul 4","Thu",41.8375,-87.6866
"234",2024-07-02,"Knoxville","Tennessee",3,1,4,"Two men opened fire outside a bar in northwest Knoxville, killing two, including a security guard, and wounding another. One of the shooters later fatally shot himself on July 11 in a Jacksonville, Florida hotel room after U.S. Marshals closed in on him.",2024,3,"Jul",2,"Jul 2","Tue",35.9692,-83.9496
"235",2024-07-01,"Philadelphia","Pennsylvania",0,5,5,"Five people were wounded during a shootout at a Chinese restaurant in the Grays Ferry neighborhood in the city's south side.",2024,3,"Jul",1,"Jul 1","Mon",40.0077,-75.1339
"236",2024-07-01,"Charleston","Missouri",0,6,6,"Six people were shot in a civic center parking lot.",2024,3,"Jul",1,"Jul 1","Mon",36.9179,-89.3343
"237",2024-07-01,"Cincinnati","Ohio",3,1,4,"Four people were shot, three fatally, in a shooting in Corryville near the campus of the University of Cincinnati.",2024,3,"Jul",1,"Jul 1","Mon",39.1413,-84.506
"238",2024-06-29,"Screven County","Georgia",0,6,6,"Six people were wounded during a block party when multiple shooters opened fire at a fireworks festival in the Lawton Place neighborhood near Sylvania.",2024,2,"Jun",29,"Jun 29","Sat",NA,NA
"239",2024-06-29,"Coweta County","Georgia",4,0,4,"A man shot and killed three people at a home before killing himself.",2024,2,"Jun",29,"Jun 29","Sat",NA,NA
"240",2024-06-28,"Crete","Nebraska",1,7,8,"A man opened fire at a home across from his, wounding seven, including four children. After police made entry into the shooter's house they found him dead of a self-inflicted gunshot wound. The victims were Guatemalan immigrants, and authorities are investigating if there was a racial motive.",2024,2,"Jun",28,"Jun 28","Fri",40.6253,-96.9575
"241",2024-06-28,"Niagara Falls","New York",0,4,4,"A fight escalated into a shooting that wounded four, including a teenage boy, shortly after midnight.",2024,2,"Jun",28,"Jun 28","Fri",43.0921,-79.0147
"242",2024-06-28,"Corpus Christi","Texas",2,3,5,"Two teenagers were killed and three others were injured in a midnight shooting in the city's west side.",2024,2,"Jun",28,"Jun 28","Fri",27.7254,-97.3767
"243",2024-06-26,"Lancaster","California",2,5,7,"Two men were killed and five others were injured when a group of men outside an apartment complex were fired upon.",2024,2,"Jun",26,"Jun 26","Wed",34.6935,-118.1753
"244",2024-06-26,"Milwaukee","Wisconsin",0,4,4,"Four people were injured in a targeted shooting at a BP gas station, including two children, in the White Manor neighborhood.",2024,2,"Jun",26,"Jun 26","Wed",43.0642,-87.9675
"245",2024-06-24,"North Las Vegas","Nevada",6,1,7,"Five people were killed and a teenage girl was critically injured at an apartment complex. The suspect later committed suicide  after being located by officers.",2024,2,"Jun",24,"Jun 24","Mon",36.2883,-115.0888
"246",2024-06-24,"Manatee County & Memphis","Florida",4,0,4,"A man drove to a Motel 6 east of Bradenton where he fatally shot his mother. He then drove to a home in Memphis where he killed one of his cousins. Finally, he drove to a home south of West Bradenton where he killed his final victim, the friend of one of his ex-girlfriends. During the early morning of the following day the shooter was killed in a shoot-out with Hamilton County Sheriff's Office deputies at a service station off Interstate 75.",2024,2,"Jun",24,"Jun 24","Mon",NA,NA
"247",2024-06-24,"York","Pennsylvania",0,4,4,"Four teenage girls were shot during the early evening.",2024,2,"Jun",24,"Jun 24","Mon",39.9651,-76.7315
"248",2024-06-24,"Dayton","Ohio",1,4,5,"Four people, including an 11-year-old boy, were injured in a domestic related shooting in the Greenwich Village neighborhood. The suspect was also injured and drove himself to a hospital where he later died.",2024,2,"Jun",24,"Jun 24","Mon",39.7805,-84.2003
"249",2024-06-24,"Dayton","Ohio",2,5,7,"A woman was killed and six others were injured in a drive-by shooting in the MacFarlane neighborhood. One of the victims who was a teenager later died.",2024,2,"Jun",24,"Jun 24","Mon",39.7805,-84.2003
"250",2024-06-23,"Trenton","New Jersey",0,4,4,"Four people were shot in the Greenwood & Hamilton neighborhood during the early morning.",2024,2,"Jun",23,"Jun 23","Sun",40.2237,-74.7641
"251",2024-06-23,"Vallejo","California",0,4,4,"Four people were shot during the early morning hours.",2024,2,"Jun",23,"Jun 23","Sun",38.1125,-122.2342
"252",2024-06-23,"Winston-Salem","North Carolina",1,4,5,"An 18-year-old man was killed and four others were injured, including the man who killed him, in an early morning shooting.",2024,2,"Jun",23,"Jun 23","Sun",36.1029,-80.261
"253",2024-06-23,"Montgomery","Alabama",0,9,9,"A shooting at a party wounded nine, including three juveniles, in the Boylston neighborhood. Four others were injured while fleeing the gunfire either in vehicular accidents or by broken glass.",2024,2,"Jun",23,"Jun 23","Sun",32.3482,-86.2668
"254",2024-06-23,"St. Louis","Missouri",1,5,6,"A fight in Downtown St. Louis erupted in gunfire, killing a man and injuring five others. A police officer was assaulted while responding to the scene.",2024,2,"Jun",23,"Jun 23","Sun",38.6359,-90.2451
"255",2024-06-23,"Rochester","New York",0,6,6,"A fight at a park in Downtown Rochester escalated into a shooting that wounded six. While securing the scene a police officer was assaulted and suffered a knee injury by a man who was then arrested.",2024,2,"Jun",23,"Jun 23","Sun",43.168,-77.6162
"256",2024-06-23,"Tampa","Florida",1,3,4,"Jacksonville-based rapper Julio Foolio was killed and three others were injured in an 'ambush' shooting at the Holiday Inn parking lot near the University of South Florida campus.",2024,2,"Jun",23,"Jun 23","Sun",27.9945,-82.4447
"257",2024-06-23,"Columbus","Ohio",0,10,10,"Ten people were shot in the Short North Arts District near Downtown Columbus.",2024,2,"Jun",23,"Jun 23","Sun",39.9862,-82.9855
"258",2024-06-22,"Henrico County","Virginia",0,6,6,"Six adults were shot north of Glen Allen off of State Route 626 shortly before midnight.",2024,2,"Jun",22,"Jun 22","Sat",NA,NA
"259",2024-06-22,"Canton","Mississippi",1,5,6,"A 19-year-old man fatally shot another man and injured five others at a popular city hangout spot.",2024,2,"Jun",22,"Jun 22","Sat",32.5975,-90.0317
"260",2024-06-22,"Louisville","Kentucky",1,7,8,"Eight people were shot at a nightclub, with one man being killed, in the Russell neighborhood shortly after midnight.",2024,2,"Jun",22,"Jun 22","Sat",38.1663,-85.6485
"261",2024-06-21,"Meridian","Mississippi",1,3,4,"A man was killed and three others were injured in a shooting during the late afternoon.",2024,2,"Jun",21,"Jun 21","Fri",32.3846,-88.6896
"262",2024-06-21,"Washington","District of Columbia",0,4,4,"Three men and a woman were shot in the Congress Heights neighborhood of southeast DC shortly before midnight.",2024,2,"Jun",21,"Jun 21","Fri",38.9047,-77.0163
"263",2024-06-21,"Fordyce","Arkansas",4,10,14,"2024 Fordyce shooting: A shooting at a local grocery store left four people dead and nine others injured, including two police officers. The shooter was shot by responding police and arrested.",2024,2,"Jun",21,"Jun 21","Fri",33.8182,-92.4174
"264",2024-06-19,"Oakland","California",0,15,15,"During a Juneteenth celebration near Lake Merritt, an illegal sideshow began, and a fight escalated, leading to fifteen people being struck by gunfire. One woman was also arrested for assaulting a police officer.",2024,2,"Jun",19,"Jun 19","Wed",37.7904,-122.2166
"265",2024-06-19,"Philadelphia","Pennsylvania",0,7,7,"Three shooters opened fire at a crowd in the Allegheny West neighborhood on the city's north side, wounding seven, including a teenage girl. Police believe the victims were targeted.",2024,2,"Jun",19,"Jun 19","Wed",40.0077,-75.1339
"266",2024-06-18,"Richmond","California",2,2,4,"Two people were killed, including a pregnant woman, and two others were injured in a shooting in the Iron Triangle neighborhood. Two of the shooting victims are juveniles.",2024,2,"Jun",18,"Jun 18","Tue",37.9477,-122.3389
"267",2024-06-17,"Macon","Georgia",1,3,4,"A woman was killed and three men were wounded in a shooting shortly before midnight.",2024,2,"Jun",17,"Jun 17","Mon",32.8065,-83.6974
"268",2024-06-17,"Chicago","Illinois",0,7,7,"A shootout between two people in the West Englewood community on the city's southwest side left seven people injured in the crossfire.",2024,2,"Jun",17,"Jun 17","Mon",41.8375,-87.6866
"269",2024-06-17,"Chicago","Illinois",0,5,5,"A person fired into a crowd of people in the Humboldt Park community on the city's west side, wounding five, including three teenagers. A woman also suffered a broken ankle while fleeing the gunfire.",2024,2,"Jun",17,"Jun 17","Mon",41.8375,-87.6866
"270",2024-06-16,"South Bend","Indiana",0,4,4,"A shooting at a Marathon gas station left four people injured.",2024,2,"Jun",16,"Jun 16","Sun",41.6767,-86.2696
"271",2024-06-16,"Methuen","Massachusetts",0,7,7,"Seven people were shot during a gathering in a commercial area, including several teenagers, with one other sustaining a head injury while fleeing.",2024,2,"Jun",16,"Jun 16","Sun",NA,NA
"272",2024-06-16,"Pine Bluff","Arkansas",1,3,4,"Four people were shot, one fatally, in the parking lot of a lakeside park.",2024,2,"Jun",16,"Jun 16","Sun",34.2116,-92.0173
"273",2024-06-15,"Detroit","Michigan",1,4,5,"Four females, including at least one teenager, and a man were shot in the Osborn area on the city's northeast side. One adult female was killed.",2024,2,"Jun",15,"Jun 15","Sat",42.3834,-83.1024
"274",2024-06-15,"Northdale","Florida",3,1,4,"A 19-year-old man killed his parents and injured one officer in a shootout. He was then shot and killed by officers.",2024,2,"Jun",15,"Jun 15","Sat",28.1058,-82.5263
"275",2024-06-15,"Round Rock","Texas",2,14,16,"Two people were killed and at least fourteen people were injured in a shooting at Old Settlers Park during a Juneteenth festival, which featured performances from artists such as Sean Ardoin and Paul Wall, when two groups opened fire on each other.",2024,2,"Jun",15,"Jun 15","Sat",30.527,-97.6642
"276",2024-06-15,"Cincinnati","Ohio",0,5,5,"Five people were wounded in a shooting at an event being held at a park in the Madisonville neighborhood in the city's northeast side.",2024,2,"Jun",15,"Jun 15","Sat",39.1413,-84.506
"277",2024-06-15,"Lathrup Village","Michigan",0,6,6,"A shooting at a party being held at a home wounded six, including several teenagers.",2024,2,"Jun",15,"Jun 15","Sat",42.4921,-83.2273
"278",2024-06-15,"Tuskegee","Alabama",1,3,4,"A shooting at a gas station killed a man and injured three others, including a city fire marshal.",2024,2,"Jun",15,"Jun 15","Sat",32.4409,-85.7131
"279",2024-06-15,"Rochester Hills","Michigan",1,9,10,"2024 Rochester Hills shooting: A man pulled up and exited his vehicle, approached a splash pad before opening fire, wounding nine people, including two children. The suspect died of a self-inflicted gunshot wound hours later after barricading himself in a house.",2024,2,"Jun",15,"Jun 15","Sat",42.6645,-83.1563
"280",2024-06-14,"Mercer County","West Virginia",0,5,5,"Two family members opened fire on each other at a Days Inn east of Lilly Grove. One shooter and four bystanders, including a five-year-old, were struck by gunfire.",2024,2,"Jun",14,"Jun 14","Fri",NA,NA
"281",2024-06-14,"Franklin Park","Florida",1,4,5,"A man was killed and four others were injured in a drive-by shooting.",2024,2,"Jun",14,"Jun 14","Fri",26.1327,-80.1763
"282",2024-06-14,"Columbus","Ohio",2,2,4,"Four people were shot, with two men being killed, at a nightclub in Downtown Columbus.",2024,2,"Jun",14,"Jun 14","Fri",39.9862,-82.9855
"283",2024-06-14,"Chicago","Illinois",0,4,4,"A drive-by shooting in the Calumet Heights community in the city's south side left three men and a woman injured.",2024,2,"Jun",14,"Jun 14","Fri",41.8375,-87.6866
"284",2024-06-13,"Chicago","Illinois",0,4,4,"A drive-by shooting in the West Pullman community in the city's south side left three women and a man injured.",2024,2,"Jun",13,"Jun 13","Thu",41.8375,-87.6866
"285",2024-06-12,"Pasco County","Florida",4,0,4,"A family of four was murdered and set ablaze east of Hudson. Officers found the bodies inside the burn pit two days later and arrested the suspect the next day.",2024,2,"Jun",12,"Jun 12","Wed",NA,NA
"286",2024-06-11,"La Junta","Colorado",4,0,4,"A murder-suicide at a home left two adults and two children dead.",2024,2,"Jun",11,"Jun 11","Tue",37.9791,-103.5471
"287",2024-06-11,"Lost Nation","Illinois",0,4,4,"Police responded to a person barricaded in a home threatening suicide. Police were then fired upon from inside the home, striking three officers, before the shooter was shot and injured and taken into custody.",2024,2,"Jun",11,"Jun 11","Tue",41.9125,-89.369
"288",2024-06-11,"Atlanta","Georgia",0,4,4,"A man shot three people after an altercation at a mall food court in the Peachtree Center of Downtown Atlanta before being shot by a police officer.",2024,2,"Jun",11,"Jun 11","Tue",33.7628,-84.422
"289",2024-06-11,"Memphis","Tennessee",0,5,5,"Four minors and an adult were injured in a shooting on I-240 in East Memphis. A car chase then occurred as police chased the suspects believed to be involved in the shooting, which resulted in an officer crashing in Raleigh. The suspects later crashed and were detained in Frayser.",2024,2,"Jun",11,"Jun 11","Tue",35.1087,-89.9663
"290",2024-06-09,"Dallas","Texas",0,4,4,"Three men and a teenage boy were shot in the Deep Ellum neighborhood in the city's east side overnight.",2024,2,"Jun",9,"Jun 9","Sun",32.7935,-96.7667
"291",2024-06-09,"Richmond","Virginia",0,4,4,"Four people were shot in Downtown Richmond shortly before midnight.",2024,2,"Jun",9,"Jun 9","Sun",37.5295,-77.4756
"292",2024-06-09,"Washington","District of Columbia",0,6,6,"Six people were injured in a shooting in the Fairlawn neighborhood of Southeast DC, including three teenagers, during the late afternoon. A police officer crashed and was injured while responding to the scene.",2024,2,"Jun",9,"Jun 9","Sun",38.9047,-77.0163
"293",2024-06-09,"Madison","Wisconsin",0,10,10,"Ten people were shot after at least one person opened fire at a rooftop party at an apartment complex near the University of Wisconsinâ€“Madison campus, including several teenagers. Two people suffered other injuries.",2024,2,"Jun",9,"Jun 9","Sun",43.0822,-89.393
"294",2024-06-08,"Eufaula","Alabama",0,4,4,"Four people were shot at a block party during the evening hours.",2024,2,"Jun",8,"Jun 8","Sat",31.9102,-85.1505
"295",2024-06-08,"Charlotte","North Carolina",0,4,4,"An argument in a business parking lot escalated when a man retrieved a firearm from his car and opened fire, striking four, in the Fourth Ward.",2024,2,"Jun",8,"Jun 8","Sat",35.2083,-80.8303
"296",2024-06-08,"Sioux Falls","South Dakota",3,2,5,"Three adults were found dead overnight and two others injured after police responded to a disturbance call.",2024,2,"Jun",8,"Jun 8","Sat",43.5396,-96.7311
"297",2024-06-07,"Beaufort County","South Carolina",0,4,4,"A teenage girl was among four wounded in a shooting at a graduation party being held in the yard of a home east of Sheldon.",2024,2,"Jun",7,"Jun 7","Fri",NA,NA
"298",2024-06-07,"Compton","California",1,5,6,"One person was killed and five were injured in a shooting at a backyard birthday party in the evening.",2024,2,"Jun",7,"Jun 7","Fri",33.893,-118.2274
"299",2024-06-07,"Jennings","Missouri",1,4,5,"A shooting at a park left a man dead and four other men injured during the afternoon.",2024,2,"Jun",7,"Jun 7","Fri",38.7231,-90.2644
"300",2024-06-06,"Kansas City","Missouri",2,2,4,"A shooting at a home in a domestic violence incident left a man and a boy dead and two others, including another boy, injured in the Oak Park Northwest neighborhood.",2024,2,"Jun",6,"Jun 6","Thu",39.1238,-94.5541
"301",2024-06-03,"Philadelphia","Pennsylvania",0,4,4,"Two men riding a moped opened fire on a group in the Fairhill neighborhood in the city's north side, wounding four, including two teenagers.",2024,2,"Jun",3,"Jun 3","Mon",40.0077,-75.1339
"302",2024-06-03,"Dumfries","Virginia",1,3,4,"A 15-year-old boy was killed and three others, including two other teenagers, were wounded in a shooting during the late evening.",2024,2,"Jun",3,"Jun 3","Mon",38.567,-77.3233
"303",2024-06-03,"Memphis","Tennessee",0,4,4,"Four people were wounded in a shooting in the Raleigh neighborhood in the city's north side.",2024,2,"Jun",3,"Jun 3","Mon",35.1087,-89.9663
"304",2024-06-02,"Pensacola","Florida",0,4,4,"A large fight escalated into a shooting that wounded four shortly after midnight.",2024,2,"Jun",2,"Jun 2","Sun",30.4413,-87.1911
"305",2024-06-02,"St. Louis","Missouri",0,6,6,"Six people were shot outside a bar in the Fairgrounds neighborhood in the city's north side.",2024,2,"Jun",2,"Jun 2","Sun",38.6359,-90.2451
"306",2024-06-02,"Newport News","Virginia",0,4,4,"Four men were shot in the Chestnut neighborhood during the early morning hours.",2024,2,"Jun",2,"Jun 2","Sun",37.1051,-76.5185
"307",2024-06-02,"Penn Hills","Pennsylvania",2,7,9,"A man and a woman were killed and seven others were injured in an exchange of gunfire inside a bar.",2024,2,"Jun",2,"Jun 2","Sun",NA,NA
"308",2024-06-02,"Louisville","Kentucky",0,6,6,"Six minors were wounded in a shooting during a party at a business.",2024,2,"Jun",2,"Jun 2","Sun",38.1663,-85.6485
"309",2024-06-02,"Akron","Ohio",1,29,30,"A man was killed and at least twenty-nine others were injured in an overnight shooting at a street party.",2024,2,"Jun",2,"Jun 2","Sun",41.0798,-81.5219
"310",2024-06-02,"Kendale Lakes","Florida",4,0,4,"Police discovered four bodies inside a home during afternoon. It was learned that a man fatally shot his parents and his partner before turning the gun on himself.",2024,2,"Jun",2,"Jun 2","Sun",25.7081,-80.4078
"311",2024-06-01,"Philadelphia","Pennsylvania",1,3,4,"A shooting in the Cobbs Creek neighborhood in the city's west side left one man dead and three others injured.",2024,2,"Jun",1,"Jun 1","Sat",40.0077,-75.1339
"312",2024-06-01,"Columbus","Ohio",1,3,4,"A man was killed and three others were injured in a shooting in the Mount Vernon neighborhood on the city's east side.",2024,2,"Jun",1,"Jun 1","Sat",39.9862,-82.9855
"313",2024-06-01,"Rock Hill","South Carolina",2,2,4,"A man and a woman were killed and two others were injured in a shooting during a block party.",2024,2,"Jun",1,"Jun 1","Sat",34.9415,-81.0241
"314",2024-06-01,"Detroit","Michigan",1,3,4,"Four people were wounded in a shooting at a block party in the Miller Grove neighborhood on the city's westside, including a suspect by police gunfire. One of the victims later died of her injuries.",2024,2,"Jun",1,"Jun 1","Sat",42.3834,-83.1024
"315",2024-06-01,"Santan","Arizona",2,4,6,"Two people, including a police officer, were killed when at least one person opened fire on a crowd outside a home in the Gila River Indian Community during the early morning. Four others were injured, including another police officer.",2024,2,"Jun",1,"Jun 1","Sat",NA,NA
"316",2024-05-30,"DeKalb County","Georgia",0,6,6,"A shootout at a home east of Candler-McAfee injured six men.",2024,2,"May",30,"May 30","Thu",NA,NA
"317",2024-05-30,"Elkridge","Maryland",4,1,5,"A man fatally shot his wife, daughter, and daughter-in-law and injured his son before committing suicide at a town-home. A three-month-old baby was left unharmed.",2024,2,"May",30,"May 30","Thu",39.1941,-76.7428
"318",2024-05-30,"Minneapolis","Minnesota",4,3,7,"2024 Minneapolis shooting: Two men were shot and killed in an apartment building in the Whittier neighborhood by a gunman. The gunman exchanged fire with police who responded to the scene, killing one officer and injuring three other people. The gunman was then killed. One injured victim later succumbed to his wounds on June 9.",2024,2,"May",30,"May 30","Thu",44.9635,-93.2678
"319",2024-05-28,"Waterbury","Connecticut",0,4,4,"Four people were shot during the late afternoon.",2024,2,"May",28,"May 28","Tue",41.5582,-73.0361
"320",2024-05-27,"Richmond","Virginia",2,2,4,"A 15-year-old boy and a man were killed and two others, including another teenager, were wounded in a shooting shortly before midnight in the Whitcomb neighborhood on the city's East End.",2024,2,"May",27,"May 27","Mon",37.5295,-77.4756
"321",2024-05-27,"Sacramento","California",0,5,5,"Five people were shot at an apartment complex in the Meadowview neighborhood on the city's south side.",2024,2,"May",27,"May 27","Mon",38.5677,-121.4685
"322",2024-05-27,"Lansing","Michigan",1,6,7,"A 17-year-old was killed and six other people, mostly teenagers, were injured in a late night shooting at a park in Downtown Lansing.",2024,2,"May",27,"May 27","Mon",42.7142,-84.5601
"323",2024-05-26,"Chicago","Illinois",1,3,4,"A man was killed and three others, including a teenager, were injured in a shooting in the North Lawndale neighborhood of the city's West Side during the early morning.",2024,2,"May",26,"May 26","Sun",41.8375,-87.6866
"324",2024-05-26,"Kansas City","Missouri",1,5,6,"A man shot five people in the entertainment district of Westport on the city's south side before he was fatally shot by a public safety officer.",2024,2,"May",26,"May 26","Sun",39.1238,-94.5541
"325",2024-05-26,"Cleveland","Ohio",1,3,4,"A man was killed and three other people were injured in a late night shooting in Downtown Cleveland.",2024,2,"May",26,"May 26","Sun",41.4764,-81.6805
"326",2024-05-25,"San Fernando","California",0,5,5,"A man shot five people at a home before barricading himself. During a stand-off with police the man fired shots at an LAPD helicopter before he was arrested.",2024,2,"May",25,"May 25","Sat",34.2886,-118.4362
"327",2024-05-25,"North St. Paul","Minnesota",0,4,4,"Four people were injured, including a teenage boy, in a shooting at a park during the evening hours.",2024,2,"May",25,"May 25","Sat",45.0137,-92.9995
"328",2024-05-25,"Fort Pierce","Florida",0,5,5,"Five people, including three teenagers, were wounded in a shooting shortly after midnight.",2024,2,"May",25,"May 25","Sat",27.4255,-80.3431
"329",2024-05-24,"Hopkins Park","Illinois",2,3,5,"Three people were injured and two were killed in a shooting during a party at a banquet hall shortly before midnight.",2024,2,"May",24,"May 24","Fri",41.069,-87.606
"330",2024-05-22,"Chester","Pennsylvania",2,3,5,"A man armed with a handgun shot five people at a linen business, killing two. The suspect was allegedly a disgruntled employee.",2024,2,"May",22,"May 22","Wed",39.8456,-75.3718
"331",2024-05-21,"Harrisburg","Pennsylvania",0,4,4,"Three people were found shot at an intersection in the Allison Hill neighborhood. A fourth person was also found shot on the next street over.",2024,2,"May",21,"May 21","Tue",40.2752,-76.8843
"332",2024-05-21,"Chicago","Illinois",0,4,4,"Four men who were walking were shot when someone in a car pulled up and opened fire in the North Lawndale neighborhood on the city's west side.",2024,2,"May",21,"May 21","Tue",41.8375,-87.6866
"333",2024-05-20,"Detroit","Michigan",1,4,5,"A verbal argument escalated when a man pulled out a gun and fired multiple shots, killing another man and wounding four other people in the Bagley neighborhood in the city's northwest side.",2024,2,"May",20,"May 20","Mon",42.3834,-83.1024
"334",2024-05-18,"Caswell County","North Carolina",3,2,5,"A man fatally shot a woman and a juvenile and injured two other juveniles at a home in Stoney Creek Township. Alamance County deputies spotted the shooter in a car in Burlington and after commanding him to surrender he fatally shot himself.",2024,2,"May",18,"May 18","Sat",NA,NA
"335",2024-05-18,"St. Louis","Missouri",1,3,4,"A shooting in the Midtown neighborhood killed a man and injured three others.",2024,2,"May",18,"May 18","Sat",38.6359,-90.2451
"336",2024-05-18,"Bridgeton","Missouri",0,5,5,"Police responded to calls of around 100 vehicles being driven recklessly on Missouri Route 141 and a connecting road. Once police arrived they were fired upon from multiple vehicles and five people were struck by gunfire, none of them being officers.",2024,2,"May",18,"May 18","Sat",38.7673,-90.4275
"337",2024-05-18,"Savannah","Georgia",0,11,11,"Shortly before midnight, a dispute between two women led to a shooting that left eleven people injured in Ellis Square.",2024,2,"May",18,"May 18","Sat",32.0286,-81.1821
"338",2024-05-18,"Chicago","Illinois",0,6,6,"Three people opened fire on a group of men in the East Garfield Park neighborhood on the city's west side, wounding six.",2024,2,"May",18,"May 18","Sat",41.8375,-87.6866
"339",2024-05-18,"Fort Pierce","Florida",3,1,4,"A man shot three, mortally wounding two, before being killed by police.",2024,2,"May",18,"May 18","Sat",27.4255,-80.3431
"340",2024-05-18,"Sarasota County","Florida",1,4,5,"A shooting during the early morning at a shopping plaza just outside of Sarasota killed one and injured four.",2024,2,"May",18,"May 18","Sat",NA,NA
"341",2024-05-18,"Columbus","Ohio",3,3,6,"An early morning shooting between the Weinland Park and Italian Village neighborhoods resulted in three people killed and three others wounded.",2024,2,"May",18,"May 18","Sat",39.9862,-82.9855
"342",2024-05-12,"Ridgeland","Mississippi",4,0,4,"A man fatally shot his mother and his two adult sisters at a home before fleeing the state. Arizona Highway Patrol officers located him on U.S. 191 a day after the murders between Morenci and Clifton where he was fatally shot after brandishing a firearm at police.",2024,2,"May",12,"May 12","Sun",32.4236,-90.1481
"343",2024-05-12,"Riverview","Missouri",1,3,4,"A 15-year-old boy was killed and three others were injured in a shooting during the evening hours.",2024,2,"May",12,"May 12","Sun",38.7442,-90.211
"344",2024-05-12,"Tallahassee","Florida",2,2,4,"Two men were killed and two others were injured in a shooting at a shopping center during the early morning hours.",2024,2,"May",12,"May 12","Sun",30.4551,-84.2527
"345",2024-05-12,"Northborough","Massachusetts",1,3,4,"Shortly after midnight a partygoer flagged down police officers and told them that someone at a house party was brandishing a firearm. When police arrived they heard gunshots and found four people had been shot. A 16-year-old boy was killed.",2024,2,"May",12,"May 12","Sun",NA,NA
"346",2024-05-12,"Atlanta","Georgia",2,4,6,"Two people were killed and four were injured after a fight at a nightclub escalated into a shooting in the Colonial Homes neighborhood.",2024,2,"May",12,"May 12","Sun",33.7628,-84.422
"347",2024-05-11,"Atlanta","Georgia",1,3,4,"Officers responded to a report of an armed man in the Capitol View neighborhood. When they arrived, they found a man armed with a handgun, and when one of them attempted to restrain him, he opened fire and struck three of them. They then returned fire, killing him.",2024,2,"May",11,"May 11","Sat",33.7628,-84.422
"348",2024-05-11,"Baldwin County","Alabama",3,15,18,"Three people were killed and fifteen were injured in a shooting at a May Day event being held in a field north of Stockton.",2024,2,"May",11,"May 11","Sat",NA,NA
"349",2024-05-11,"Louisville","Kentucky",2,2,4,"Two men were killed and two others were injured in a shooting at a bar in the Southland Park neighborhood.",2024,2,"May",11,"May 11","Sat",38.1663,-85.6485
"350",2024-05-08,"Durham","North Carolina",1,3,4,"A man shot three men and a woman at an apartment complex, killing one of the men.",2024,2,"May",8,"May 8","Wed",35.9792,-78.9022
"351",2024-05-08,"Bexar County","Texas",1,4,5,"Two people opened fire at a home in a targeted attack just outside of San Antonio, striking five, including three children. A four-year-old was killed.",2024,2,"May",8,"May 8","Wed",NA,NA
"352",2024-05-08,"Gwinnett County","Georgia",4,0,4,"A man killed three children he was babysitting at a park before he killed himself just north of Tucker.",2024,2,"May",8,"May 8","Wed",NA,NA
"353",2024-05-06,"Fort Wayne","Indiana",0,4,4,"A large fight escalated into a shooting that wounded four in the Pettit-Rudisill neighborhood.",2024,2,"May",6,"May 6","Mon",41.0888,-85.1436
"354",2024-05-05,"Gallup","New Mexico",2,2,4,"A man shot four people, including a child, at a shopping mall during the early morning hours. Two men were killed.",2024,2,"May",5,"May 5","Sun",35.5182,-108.7431
"355",2024-05-05,"Huntsville","Alabama",0,5,5,"A shooting at a bar wounded five during the late evening hours.",2024,2,"May",5,"May 5","Sun",34.6981,-86.6412
"356",2024-05-05,"Birmingham","Alabama",1,6,7,"A shooting outside a gas station in the Bush Hills neighborhood left one dead and six injured.",2024,2,"May",5,"May 5","Sun",33.5279,-86.7971
"357",2024-05-05,"Tuscaloosa County","Alabama",1,3,4,"An altercation at a home just outside of Tuscaloosa escalated into a shooting, leaving one dead and three injured.",2024,2,"May",5,"May 5","Sun",NA,NA
"358",2024-05-04,"Fresno","California",0,5,5,"A man got into an argument at a family gathering at a home. The man then returned to the gathering armed with two of his brothers, striking five, including a five-year-old and a teenager, as well as both of his brothers.",2024,2,"May",4,"May 4","Sat",36.783,-119.7939
"359",2024-05-04,"Buffalo","New York",1,5,6,"A shooting at a house party in the Cold Springs neighborhood killed a 14-year-old girl and wounded five other teenagers.",2024,2,"May",4,"May 4","Sat",42.9018,-78.8487
"360",2024-05-04,"Long Beach","California",0,7,7,"Two people opened fire on a group outside a nightclub in the Davenport Park neighborhood, injuring seven, in what is believed to be a gang-related incident.",2024,2,"May",4,"May 4","Sat",33.7977,-118.167
"361",2024-05-04,"New York City","New York",1,3,4,"A shooting at an event center where a baby shower was being held in the Richmond Hill area of Queens killed a man and injured three other men.",2024,2,"May",4,"May 4","Sat",NA,NA
"362",2024-05-04,"Memphis","Tennessee",1,3,4,"Four people were shot, one fatally, near a shopping center in the Hickory Hill neighborhood.",2024,2,"May",4,"May 4","Sat",35.1087,-89.9663
"363",2024-05-04,"Philadelphia","Pennsylvania",1,3,4,"An 18-year-old was killed and three others, including two other teenagers, were injured in a shooting at a home in the Kingsessing neighborhood.",2024,2,"May",4,"May 4","Sat",40.0077,-75.1339
"364",2024-05-03,"Pulaski County & Russell County","Kentucky",3,1,4,"A woman fatally shot her husband outside their home in Pulaski County before driving southwest to the home of her sister in Russell County where she fatally shot her sister. She then drove northeast to the home of her brother where she forced herself inside, injuring him before he mortally wounded her in self-defense.",2024,2,"May",3,"May 3","Fri",NA,NA
"365",2024-05-03,"Westbury","New York",0,6,6,"Six people were shot at a birthday party, five of whom were minors.",2024,2,"May",3,"May 3","Fri",40.7599,-73.5891
"366",2024-05-02,"Henrico County","Virginia",1,3,4,"A shooting at an apartment complex during a cook-out killed a man and injured three other men just north of Richmond.",2024,2,"May",2,"May 2","Thu",NA,NA
"367",2024-05-01,"Detroit","Michigan",0,4,4,"An altercation between two women at a park near Frank Cody High School on the city's west side lead to a man opening fire, hitting two women and two children. One of the women shot is pregnant.",2024,2,"May",1,"May 1","Wed",42.3834,-83.1024
"368",2024-05-01,"Fort Worth","Texas",0,6,6,"A drive-by shooting outside an apartment complex wounded six, the youngest of whom was three years old and the oldest of whom was 19 years old.",2024,2,"May",1,"May 1","Wed",32.7817,-97.3474
"369",2024-04-29,"Charlotte","North Carolina",5,4,9,"2024 Charlotte shootout: Four police officers were killed and four others were injured in a shootout during a U.S. Marshals task force search for a wanted fugitive in the Shannon Park neighborhood. The subject of the warrant was also killed.",2024,2,"Apr",29,"Apr 29","Mon",35.2083,-80.8303
"370",2024-04-29,"Miami Gardens","Florida",0,5,5,"A fight amongst a group of students at Miami Norland Senior High School was brought off-campus to be discussed among a group of adults and teenagers. During the discussion, another fight occurred and an adult pulled out a gun and opened fire, striking two teenagers and three adults.",2024,2,"Apr",29,"Apr 29","Mon",25.9433,-80.2426
"371",2024-04-28,"Hinds County","Mississippi",1,4,5,"An argument among a group at a club just northeast of Utica escalated into a shooting that killed a man and injured four others.",2024,2,"Apr",28,"Apr 28","Sun",NA,NA
"372",2024-04-28,"Kenner","Louisiana",1,5,6,"A man wanted for an armed robbery and shooting the previous week shot two more men whom he mistook for undercover police officers, which led to a standoff in which he shot three police officers before being killed by a police sniper.",2024,2,"Apr",28,"Apr 28","Sun",30.0109,-90.2549
"373",2024-04-28,"Seminole County","Florida",0,10,10,"Ten people were shot when a 16-year-old boy opened fire early Sunday during a verbal altercation at Cabana Live, a restaurant and event venue near Sanford. The suspect was apprehended and booked into the juvenile detention center.",2024,2,"Apr",28,"Apr 28","Sun",NA,NA
"374",2024-04-28,"San Antonio","Texas",2,4,6,"Two people were killed and four were injured in a late-night shootout involving police officers at Market Square during the Festival San Antonio. An 18-year-old man shot and killed another man before being fatally shot by police. Four bystanders were injured.",2024,2,"Apr",28,"Apr 28","Sun",29.4632,-98.5238
"375",2024-04-28,"Tucson","Arizona",1,3,4,"A shooting during a party at a home killed a young woman and injured three others.",2024,2,"Apr",28,"Apr 28","Sun",32.1541,-110.8787
"376",2024-04-28,"Fitzgerald","Georgia",1,3,4,"A 15-year-old opened fire at an after-prom party and killed another 15-year-old and wounded three other teenagers.",2024,2,"Apr",28,"Apr 28","Sun",31.7134,-83.2514
"377",2024-04-27,"Orangeburg County","South Carolina",1,3,4,"A 16-year-old opened fire shortly after midnight at the end of an after-prom party for Lake Marion High School students and killed a 19-year-old and wounded three others.",2024,2,"Apr",27,"Apr 27","Sat",NA,NA
"378",2024-04-27,"Mobile","Alabama",0,5,5,"Five people were injured when two people opened fire upon each other at a barber shop in the Pleasant Valley neighborhood.",2024,2,"Apr",27,"Apr 27","Sat",30.6782,-88.1162
"379",2024-04-27,"Daytona Beach","Florida",0,4,4,"Four people were injured after a street fight turned into a shooting in the Seabreeze neighborhood.",2024,2,"Apr",27,"Apr 27","Sat",29.1995,-81.0982
"380",2024-04-26,"Washington","District of Columbia",0,6,6,"A man who was kicked out of a bar pulled out a gun and shot six people, including a security guard, in the Dupont Circle neighborhood of in Northwest DC.",2024,2,"Apr",26,"Apr 26","Fri",38.9047,-77.0163
"381",2024-04-24,"Springdale","Arkansas",2,2,4,"A man shot and killed a woman and wounded two other people in a car before killing himself.",2024,2,"Apr",24,"Apr 24","Wed",36.1901,-94.1574
"382",2024-04-22,"Dinwiddie County","Virginia",0,5,5,"Five people, including two teenagers, were injured in a drive-by shooting outside an apartment complex southwest of Petersburg.",2024,2,"Apr",22,"Apr 22","Mon",NA,NA
"383",2024-04-22,"Oklahoma City","Oklahoma",5,0,5,"A man killed his wife and three of their children before killing himself in their home near Yukon. A fourth child was found unharmed.",2024,2,"Apr",22,"Apr 22","Mon",35.4676,-97.5136
"384",2024-04-21,"Oak Forest","Illinois",1,3,4,"Two teenage girls and a 12-year-old girl were shot in a neighborhood. Authorities then tracked down and stopped a car believed to be involved in the shooting. Inside they found two people, one with a mortal gunshot wound to the head and a person of interest who was arrested.",2024,2,"Apr",21,"Apr 21","Sun",41.6054,-87.7527
"385",2024-04-20,"Memphis","Tennessee",2,7,9,"At least two shooters opened fire and killed two people, while wounding seven others at a large block party being held at a park in the Orange Mound neighborhood.",2024,2,"Apr",20,"Apr 20","Sat",35.1087,-89.9663
"386",2024-04-20,"Weirton","West Virginia",3,1,4,"A man fatally shot two women and injured another at a home before committing suicide.",2024,2,"Apr",20,"Apr 20","Sat",40.406,-80.5671
"387",2024-04-19,"Washington","District of Columbia",0,4,4,"A drive-by shooting outside a convenience store in the Trinidad neighborhood of Northeast DC wounded four, including a teenager.",2024,2,"Apr",19,"Apr 19","Fri",38.9047,-77.0163
"388",2024-04-19,"Greenbelt","Maryland",0,5,5,"Around 500 juvenile and young adult students gathered at a park for ""senior skip day"" for a water gun fight. During the fight, someone opened fire with an actual gun, striking five teenagers.",2024,2,"Apr",19,"Apr 19","Fri",38.9953,-76.8885
"389",2024-04-18,"Chackbay","Louisiana",0,4,4,"A fight among a group of people escalated into a shooting that wounded four during the evening hours.",2024,2,"Apr",18,"Apr 18","Thu",29.8809,-90.775
"390",2024-04-16,"New York City","New York",1,3,4,"One person was killed and three were injured by two shooters riding scooters in the Mount Eden neighborhood of The Bronx.",2024,2,"Apr",16,"Apr 16","Tue",NA,NA
"391",2024-04-16,"Sampson County","North Carolina",1,3,4,"A man was killed and three others were injured south of Clinton.",2024,2,"Apr",16,"Apr 16","Tue",NA,NA
"392",2024-04-14,"Hopkinsville","Kentucky",0,4,4,"A drive-by shooting outside a county health department office wounded four, including three juveniles.",2024,2,"Apr",14,"Apr 14","Sun",36.8381,-87.4775
"393",2024-04-14,"New Orleans","Louisiana",1,11,12,"A shooting at a nightclub in the Lower Garden District killed a woman and injured eleven others.",2024,2,"Apr",14,"Apr 14","Sun",30.0687,-89.9288
"394",2024-04-14,"Richmond","Virginia",1,3,4,"A teenager was killed and three others were injured in a shooting outside a home in the Montrose Heights neighborhood.",2024,2,"Apr",14,"Apr 14","Sun",37.5295,-77.4756
"395",2024-04-14,"Dallas","Texas",1,8,9,"A shooting believed to have stemmed from gang violence killed a woman and injured eight others after a large party went out onto the street in South Dallas.",2024,2,"Apr",14,"Apr 14","Sun",32.7935,-96.7667
"396",2024-04-14,"Nashville","Tennessee",0,6,6,"An argument between the two individuals escalated into a shooting that left six people injured near a nightclub in South Nashville.",2024,2,"Apr",14,"Apr 14","Sun",36.1715,-86.7842
"397",2024-04-13,"Coldwater","Mississippi",1,3,4,"A man was killed and three others were injured in a shooting at a home during the morning hours.",2024,2,"Apr",13,"Apr 13","Sat",34.6902,-89.9757
"398",2024-04-13,"Albany","Georgia",0,4,4,"A fight at a nightclub between gang members escalated when a man fired shots into a crowd, striking four, during the early morning hours.",2024,2,"Apr",13,"Apr 13","Sat",31.5776,-84.1762
"399",2024-04-13,"Chicago","Illinois",1,10,11,"A child was killed and ten others, including three other children, were injured when three shooters walked up to a street and opened fire at a remote crowd during a family gathering in the Back of the Yards neighborhood on the South Side.",2024,2,"Apr",13,"Apr 13","Sat",41.8375,-87.6866
"400",2024-04-13,"Wynne","Arkansas",1,9,10,"A man was killed and nine others were injured in a shooting erupted at a block party during the evening hours.",2024,2,"Apr",13,"Apr 13","Sat",35.2322,-90.7897
"401",2024-04-12,"Memphis","Tennessee",2,3,5,"Two suspects engaged in a shootout with Memphis Police Department officers, leaving a suspect and a police officer dead and the other suspect and two others wounded. The dead officer was killed by friendly fire from other officers.",2024,2,"Apr",12,"Apr 12","Fri",35.1087,-89.9663
"402",2024-04-11,"Lockhart","Florida",1,3,4,"Four men were shot, one fatally, near an apartment complex during the evening hours in a targeted attack.",2024,2,"Apr",11,"Apr 11","Thu",28.627,-81.4354
"403",2024-04-10,"Washington","District of Columbia",1,5,6,"One man was killed and five others injured, including two children, in Northeast DC.",2024,2,"Apr",10,"Apr 10","Wed",38.9047,-77.0163
"404",2024-04-09,"Tampa","Florida",0,4,4,"Three women were injured after a verbal altercation between two groups of teenagers escalated into a shooting near Armature Works in Tampa Heights. A teenager who was involved in the shooting was also injured and later arrested.",2024,2,"Apr",9,"Apr 9","Tue",27.9945,-82.4447
"405",2024-04-07,"Oklahoma City","Oklahoma",1,3,4,"Four bystanders to a fight in an event center parking lot in the Grand Portland neighborhood were shot, with one woman being killed.",2024,2,"Apr",7,"Apr 7","Sun",35.4676,-97.5136
"406",2024-04-07,"Washington","District of Columbia",0,4,4,"Three men and a woman were shot in the Bellevue neighborhood of Southwest DC during the evening hours.",2024,2,"Apr",7,"Apr 7","Sun",38.9047,-77.0163
"407",2024-04-07,"San Antonio","Texas",0,6,6,"Six people, including three teenagers, were struck by gunfire in an event center parking lot in Uptown when they were fired upon from across the street.",2024,2,"Apr",7,"Apr 7","Sun",29.4632,-98.5238
"408",2024-04-06,"Stockton","California",1,3,4,"A man was found in a car suffering a gunshot wound following reports of shots fired. Shortly afterwards, police engaged in a chase with a car believed to be involved with the previous shooting and after the vehicle was stopped, three teenagers were found inside injured. A teenage boy later died from his injuries.",2024,2,"Apr",6,"Apr 6","Sat",37.9765,-121.3109
"409",2024-04-06,"Doral","Florida",2,7,9,"During a fight at a nightclub in the CityPlace Doral mall, a man pulled out a gun and shot a security guard who attempted to intervene, killing him. The man and the security team got into a shootout, ending with the gunman killed and seven people, including a police officer, wounded.",2024,2,"Apr",6,"Apr 6","Sat",25.8152,-80.3565
"410",2024-04-05,"North Little Rock","Arkansas",1,3,4,"A man fatally shot a woman in a car and injured three others in a domestic violence incident. The shooter was located by a police dog in an abandoned house and arrested.",2024,2,"Apr",5,"Apr 5","Fri",34.7807,-92.2371
"411",2024-04-05,"Riviera Beach","Florida",0,4,4,"Three adults and a juvenile were shot at an intersection during the evening hours.",2024,2,"Apr",5,"Apr 5","Fri",26.7813,-80.0741
"412",2024-04-02,"Des Moines","Iowa",1,3,4,"A shooting at an apartment complex in the McKinley School/Columbus Park neighborhood shortly before midnight killed one and injured three.",2024,2,"Apr",2,"Apr 2","Tue",41.5725,-93.6105
"413",2024-04-01,"Eastpointe","Michigan",0,4,4,"A victim's car was rammed into and at least one occupant in the ramming vehicle then opened fire, wounding four, including a pregnant woman.",2024,2,"Apr",1,"Apr 1","Mon",42.4657,-82.9461
"414",2024-03-31,"Jacksonville","Florida",3,1,4,"An argument between a son and father turned into a shooting in which the son killed the father and one of his brothers and wounded his mother before taking his own life in the Duclay neighborhood of Westside.",2024,1,"Mar",31,"Mar 31","Sun",30.3322,-81.6749
"415",2024-03-31,"Paris","Texas",0,4,4,"A fight between two men at a block party being held at a government housing complex turned into a shooting that injured four during the early morning hours.",2024,1,"Mar",31,"Mar 31","Sun",33.6688,-95.546
"416",2024-03-31,"St. Petersburg","Florida",0,4,4,"An argument in a bar in the United Central neighborhood escalated into a shooting that injured four, including a 17-year-old girl.",2024,1,"Mar",31,"Mar 31","Sun",27.7931,-82.6652
"417",2024-03-31,"Jackson","Mississippi",0,5,5,"A young adult woman opened fire at a birthday party at a park in Belhaven due to a fight and injured four, including an eight-year-old and a teenager. The shooter accidentally shot herself as well.",2024,1,"Mar",31,"Mar 31","Sun",32.3157,-90.2125
"418",2024-03-31,"Jackson","Mississippi",1,3,4,"An altercation among a group of young men at a gas station escalated into a shooting that killed one and injured three during the early morning hours.",2024,1,"Mar",31,"Mar 31","Sun",32.3157,-90.2125
